$PVER,"Dropkick, version 0.53 - truncated version of LOG00014.TXT",53
$PIMU,811889,9.30,-0.82,3.30,0.03,-0.00,0.04
$PIMU,811914,9.34,-0.53,3.28,0.01,0.00,0.05
$PIMU,811939,9.28,-0.65,3.14,-0.01,-0.00,0.03
$PIMU,811965,9.42,-0.78,3.21,0.02,-0.01,0.03
$PIMU,811989,9.57,-0.80,3.20,0.03,-0.01,0.04
$PIMU,812014,9.19,-0.65,3.28,0.04,0.00,0.04
$PIMU,812039,9.31,-0.62,3.25,0.03,-0.01,0.04
$PIMU,812064,9.29,-0.68,3.25,0.02,-0.00,0.03
$PIMU,812090,9.50,-0.75,3.19,0.02,0.00,0.04
$PENV,812105,592.47,14119.06,3.97
$PIMU,812115,9.45,-0.75,3.13,0.01,-0.00,0.05
$PIMU,812140,9.26,-0.75,3.08,0.03,0.00,0.04
$PIMU,812164,9.34,-0.72,3.14,0.04,-0.01,0.05
$PIMU,812189,9.21,-0.60,3.39,0.05,-0.00,0.04
$PIMU,812215,9.33,-0.59,3.38,0.03,0.00,0.04
$PIMU,812240,9.32,-0.52,3.36,0.00,0.01,0.04
$PIMU,812264,9.23,-0.61,3.13,-0.03,0.01,0.04
$PIMU,812289,9.24,-0.78,3.06,-0.00,-0.01,0.04
$PIMU,812314,9.24,-0.70,3.15,0.04,-0.01,0.04
$PIMU,812339,9.40,-0.56,3.28,0.03,-0.00,0.04
$PENV,812351,592.28,14126.77,3.97
$PIMU,812364,9.33,-0.55,3.34,0.00,0.01,0.04
$GNRMC,155504.00,A,3328.35235,N,09622.04864,W,115.328,202.48,070822,,,A*64
$GNVTG,202.48,T,,M,115.328,N,213.588,K,A*26
$GNGGA,155504.00,3328.35235,N,09622.04864,W,1,11,0.99,4610.9,M,-25.7,M,,*4E
$PTH,812390
$GNGSA,A,3,19,02,12,25,20,05,29,,,,,,1.57,0.99,1.22*1C
$GNGSA,A,3,88,72,65,79,,,,,,,,,1.57,0.99,1.22*16
$GPGSV,4,1,13,02,62,005,19,05,63,195,28,06,19,060,08,09,03,040,11*7C
$GPGSV,4,2,13,11,50,038,09,12,54,214,29,13,05,152,23,15,00,183,20*78
$GPGSV,4,3,13,18,01,260,15,19,10,114,17,20,72,059,16,25,47,282,20*7D
$GPGSV,4,4,13,29,25,313,21*45
$GLGSV,3,1,10,65,41,143,16,66,00,182,13,71,11,028,,72,44,069,13*6C
$GLGSV,3,2,10,77,19,217,16,79,11,328,19,81,04,290,13,86,04,085,*62
$GLGSV,3,3,10,87,44,037,,88,41,327,14*69
$GNGLL,3328.35235,N,09622.04864,W,155504.00,A,A*6C
$PTH,812487
$PIMU,812501,9.21,-0.51,3.33,0.05,-0.01,0.04
$PIMU,812525,9.35,-0.58,3.29,0.03,-0.00,0.04
$PIMU,812550,9.21,-0.47,3.38,0.02,0.00,0.04
$PIMU,812575,9.10,-0.48,3.29,0.01,0.01,0.04
$PENV,812596,592.24,14128.42,3.97
$PIMU,812600,9.20,-0.56,3.19,0.01,-0.01,0.04
$PIMU,812626,9.17,-0.68,3.11,0.01,-0.02,0.04
$PIMU,812651,9.42,-0.66,3.15,0.05,-0.04,0.05
$PIMU,812675,9.26,-0.52,3.31,0.04,-0.03,0.04
$PIMU,812700,9.24,-0.56,3.30,0.03,-0.02,0.05
$PIMU,812726,9.12,-0.50,3.32,0.04,-0.02,0.05
$PIMU,812754,9.14,-0.51,3.28,0.04,-0.02,0.06
$PIMU,812775,9.34,-0.54,3.12,0.04,-0.03,0.06
$PIMU,812800,9.31,-0.42,3.17,0.04,-0.04,0.04
$PIMU,812825,9.36,-0.42,3.33,0.06,-0.02,0.04
$PENV,812842,592.23,14129.09,3.97
$PIMU,812850,9.14,-0.37,3.31,0.01,-0.02,0.04
$PIMU,812875,9.15,-0.46,3.28,-0.00,-0.01,0.04
$PIMU,812901,9.17,-0.49,3.18,0.00,-0.01,0.04
$PIMU,812925,9.18,-0.56,3.22,0.04,-0.02,0.04
$PIMU,812950,9.41,-0.51,3.12,0.03,-0.03,0.04
$PIMU,812975,9.22,-0.56,3.19,0.02,-0.03,0.03
$PIMU,813001,9.16,-0.59,3.19,0.02,-0.02,0.03
$PIMU,813026,9.10,-0.55,3.23,0.02,-0.02,0.04
$PIMU,813051,9.18,-0.40,3.31,0.05,-0.02,0.04
$PIMU,813075,9.36,-0.33,3.31,0.04,-0.02,0.05
$PENV,813087,592.06,14136.36,3.97
$PIMU,813100,9.19,-0.36,3.29,0.02,-0.01,0.04
$PIMU,813125,9.18,-0.42,3.10,0.01,-0.02,0.04
$PIMU,813150,9.31,-0.55,3.11,0.03,-0.03,0.03
$PIMU,813176,9.25,-0.52,3.27,0.04,-0.02,0.04
$PIMU,813201,9.26,-0.40,3.26,0.03,-0.02,0.04
$PIMU,813225,9.12,-0.39,3.30,0.01,-0.01,0.04
$PIMU,813250,9.25,-0.35,3.24,0.01,-0.00,0.04
$PIMU,813275,9.26,-0.36,3.17,0.01,-0.01,0.03
$PIMU,813300,9.26,-0.43,3.12,0.01,-0.01,0.03
$GNRMC,155505.00,A,3328.32255,N,09622.06325,W,114.483,202.20,070822,,,A*61
$GNVTG,202.20,T,,M,114.483,N,212.022,K,A*2B
$GNGGA,155505.00,3328.32255,N,09622.06325,W,1,12,0.99,4613.5,M,-25.7,M,,*4E
$PTH,813327
$GNGSA,A,3,11,19,02,12,25,20,05,29,,,,,1.55,0.99,1.19*16
$GNGSA,A,3,88,72,65,79,,,,,,,,,1.55,0.99,1.19*1C
$GPGSV,4,1,13,02,62,005,17,05,63,195,28,06,19,060,07,09,03,040,12*7E
$GPGSV,4,2,13,11,50,038,12,12,54,214,29,13,05,152,23,15,00,183,20*72
$GPGSV,4,3,13,18,01,260,15,19,10,114,15,20,72,059,16,25,47,282,24*7B
$GPGSV,4,4,13,29,25,313,18*4F
$GLGSV,3,1,10,65,41,143,13,66,00,182,15,71,11,028,,72,44,069,11*6D
$GLGSV,3,2,10,77,19,217,14,79,11,328,18,81,04,290,13,86,04,085,*61
$GLGSV,3,3,10,87,44,037,,88,41,327,14*69
$GNGLL,3328.32255,N,09622.06325,W,155505.00,A,A*60
$PTH,813425
$PIMU,813437,9.20,-0.47,3.08,-0.01,-0.01,0.04
$PIMU,813461,9.21,-0.53,3.06,-0.00,-0.01,0.03
$PIMU,813486,9.24,-0.56,3.14,0.02,-0.01,0.04
$PIMU,813511,9.32,-0.51,3.20,0.01,-0.01,0.04
$PIMU,813536,9.11,-0.40,3.31,0.00,0.00,0.04
$PIMU,813562,9.15,-0.30,3.18,-0.01,-0.00,0.05
$PENV,813577,592.01,14138.30,3.97
$PIMU,813587,9.07,-0.27,3.12,-0.02,0.00,0.05
$PIMU,813611,9.23,-0.37,3.02,-0.00,-0.01,0.05
$PIMU,813636,9.32,-0.48,3.07,0.03,-0.01,0.04
$PIMU,813662,9.14,-0.36,3.23,0.04,-0.00,0.05
$PIMU,813686,9.06,-0.27,3.32,0.02,-0.00,0.05
$PIMU,813711,9.12,-0.29,3.27,0.02,-0.00,0.05
$PIMU,813736,9.25,-0.31,3.16,0.00,-0.00,0.05
$PIMU,813761,9.25,-0.35,3.07,0.01,-0.00,0.05
$PIMU,813786,9.20,-0.33,3.11,0.03,-0.00,0.04
$PIMU,813811,9.26,-0.45,3.10,0.02,-0.00,0.04
$PENV,813823,591.85,14144.90,3.97
$PIMU,813836,9.20,-0.43,3.21,0.01,0.01,0.05
$PIMU,813862,9.23,-0.35,3.12,0.00,0.01,0.05
$PIMU,813886,9.20,-0.34,3.16,0.02,0.01,0.04
$PIMU,813911,9.13,-0.37,3.12,0.03,0.01,0.05
$PIMU,813936,9.18,-0.32,3.13,0.04,0.00,0.05
$PIMU,813961,9.21,-0.31,3.13,0.02,0.01,0.05
$PIMU,813986,9.29,-0.43,3.01,-0.01,0.01,0.05
$PIMU,814011,9.20,-0.46,3.07,0.02,0.01,0.05
$PIMU,814036,9.21,-0.28,3.15,0.03,0.01,0.05
$PIMU,814061,9.08,-0.24,3.21,0.03,0.00,0.04
$PENV,814069,591.77,14148.51,3.97
$PIMU,814086,9.18,-0.30,3.26,0.03,0.01,0.05
$PIMU,814111,9.29,-0.37,3.03,-0.00,0.01,0.05
$PIMU,814137,9.24,-0.37,2.95,-0.01,0.01,0.05
$PIMU,814161,9.33,-0.44,2.95,0.02,0.00,0.05
$PIMU,814186,9.14,-0.32,3.18,0.03,0.00,0.04
$PIMU,814211,9.05,-0.27,3.28,0.01,0.02,0.05
$PIMU,814236,9.03,-0.30,3.20,-0.01,0.02,0.04
$PIMU,814261,9.07,-0.34,3.06,-0.01,0.02,0.04
$PIMU,814286,9.32,-0.46,2.90,0.01,0.01,0.05
$PIMU,814312,9.16,-0.46,2.95,0.04,-0.00,0.06
$PENV,814317,591.76,14148.99,3.97
$PIMU,814337,9.17,-0.50,3.03,0.05,0.01,0.06
$GNRMC,155506.00,A,3328.29320,N,09622.07838,W,114.406,204.30,070822,,,A*67
$GNVTG,204.30,T,,M,114.406,N,211.879,K,A*24
$GNGGA,155506.00,3328.29320,N,09622.07838,W,1,12,0.99,4616.2,M,-25.7,M,,*40
$PTH,814367
$GNGSA,A,3,11,19,02,12,25,20,05,29,,,,,1.55,0.99,1.19*16
$GNGSA,A,3,88,72,65,79,,,,,,,,,1.55,0.99,1.19*1C
$GPGSV,4,1,13,02,62,005,15,05,63,195,27,06,19,060,08,09,03,040,13*7D
$GPGSV,4,2,13,11,50,038,12,12,54,214,29,13,05,152,20,15,00,183,17*75
$GPGSV,4,3,13,18,01,260,13,19,10,114,14,20,72,059,17,25,47,282,26*7F
$GPGSV,4,4,13,29,25,313,15*42
$GLGSV,3,1,10,65,41,143,10,66,00,182,16,71,11,028,,72,44,069,13*6F
$GLGSV,3,2,10,77,19,217,16,79,11,328,17,81,04,290,11,86,04,085,*6E
$GLGSV,3,3,10,87,44,037,,88,41,327,15*68
$GNGLL,3328.29320,N,09622.07838,W,155506.00,A,A*6C
$PTH,814465
$PIMU,814476,9.30,-0.35,3.04,0.06,0.01,0.04
$PIMU,814504,9.34,-0.34,3.17,0.04,0.02,0.05
$PIMU,814525,9.09,-0.25,3.20,0.02,0.02,0.06
$PIMU,814550,9.04,-0.24,3.16,0.01,0.03,0.05
$PENV,814559,591.63,14154.19,3.97
$PIMU,814575,9.07,-0.36,2.98,0.01,0.03,0.05
$PIMU,814601,9.03,-0.36,3.05,0.02,0.03,0.05
$PIMU,814626,9.23,-0.36,2.98,0.05,0.01,0.06
$PIMU,814650,9.16,-0.29,3.04,0.05,0.01,0.06
$PIMU,814675,9.05,-0.31,3.21,0.03,0.02,0.05
$PIMU,814700,9.10,-0.46,3.04,0.02,0.02,0.05
$PIMU,814726,9.07,-0.43,3.11,0.02,0.03,0.06
$PIMU,814750,9.19,-0.26,3.01,0.04,0.03,0.06
$PIMU,814776,9.02,-0.24,2.97,0.02,0.03,0.05
$PIMU,814800,9.07,-0.33,2.93,0.04,0.02,0.06
$PENV,814805,591.50,14159.79,3.97
$PIMU,814825,9.06,-0.36,3.13,0.06,0.01,0.06
$PIMU,814850,9.13,-0.20,3.22,0.05,0.02,0.06
$PIMU,814876,9.14,-0.21,3.06,0.01,0.03,0.05
$PIMU,814900,9.00,-0.34,3.04,0.01,0.04,0.04
$PIMU,814925,9.02,-0.32,2.97,0.04,0.02,0.05
$PIMU,814951,8.95,-0.23,3.06,0.08,0.01,0.07
$PIMU,814976,9.05,-0.13,2.99,0.06,-0.00,0.07
$PIMU,815000,9.21,-0.28,2.94,0.05,0.00,0.05
$PIMU,815025,9.26,-0.46,3.11,0.03,0.03,0.04
$PENV,815050,591.46,14161.48,3.97
$PIMU,815054,9.04,-0.32,3.12,0.03,0.04,0.06
$PIMU,815079,8.82,-0.10,3.09,0.02,0.04,0.07
$PIMU,815104,8.84,-0.22,2.99,0.04,0.01,0.07
$PIMU,815130,9.14,-0.31,2.99,0.05,0.01,0.06
$PIMU,815154,9.07,-0.25,2.99,0.05,0.00,0.06
$PIMU,815179,9.05,-0.27,3.10,0.06,0.01,0.06
$PIMU,815204,9.17,-0.28,3.09,0.06,0.01,0.06
$PIMU,815230,9.01,-0.13,3.12,0.04,0.02,0.07
$PIMU,815255,9.00,-0.02,3.03,0.03,0.02,0.07
$PIMU,815279,9.05,-0.23,2.93,0.02,0.01,0.06
$PENV,815295,591.40,14164.11,3.97
$PIMU,815305,9.08,-0.48,3.02,0.05,0.00,0.05
$PIMU,815330,9.12,-0.33,3.15,0.05,-0.01,0.06
$PIMU,815354,9.07,-0.17,3.19,0.02,-0.00,0.06
$PIMU,815379,9.13,-0.22,3.00,-0.01,0.01,0.06
$GNRMC,155507.00,A,3328.26366,N,09622.09479,W,113.276,203.90,070822,,,A*67
$GNVTG,203.90,T,,M,113.276,N,209.787,K,A*28
$GNGGA,155507.00,3328.26366,N,09622.09479,W,1,12,0.91,4617.1,M,-25.7,M,,*41
$PTH,815405
$GNGSA,A,3,11,19,02,12,25,20,05,29,,,,,1.49,0.91,1.18*12
$GNGSA,A,3,88,72,65,79,,,,,,,,,1.49,0.91,1.18*18
$GPGSV,4,1,13,02,62,005,12,05,63,195,26,06,19,060,09,09,03,040,14*7D
$GPGSV,4,2,13,11,50,038,12,12,54,214,28,13,05,152,19,15,00,183,18*71
$GPGSV,4,3,13,18,01,260,16,19,10,114,13,20,72,059,16,25,47,282,23*79
$GPGSV,4,4,13,29,25,313,15*42
$GLGSV,3,1,10,65,41,143,14,66,00,182,15,71,11,028,18,72,44,069,15*67
$GLGSV,3,2,10,77,19,217,17,79,11,328,15,81,04,290,10,86,04,085,*6C
$GLGSV,3,3,10,87,44,037,,88,41,327,13*6E
$GNGLL,3328.26366,N,09622.09479,W,155507.00,A,A*67
$PTH,815501
$PIMU,815518,9.04,-0.19,3.11,-0.02,-0.00,0.06
$PENV,815541,591.42,14163.08,3.97
$PIMU,815545,8.98,-0.26,2.93,-0.02,0.00,0.06
$PIMU,815569,8.93,-0.37,2.88,0.02,-0.01,0.06
$PIMU,815594,9.11,-0.35,3.05,0.07,-0.02,0.06
$PIMU,815620,9.22,-0.25,3.06,0.06,-0.02,0.06
$PIMU,815645,9.16,-0.13,3.14,0.04,0.00,0.05
$PIMU,815669,9.02,-0.15,3.00,0.00,0.01,0.04
$PIMU,815694,8.91,-0.43,3.02,0.02,0.00,0.04
$PIMU,815720,8.99,-0.35,3.05,0.04,0.00,0.05
$PIMU,815745,9.15,-0.08,3.00,0.03,-0.01,0.06
$PIMU,815769,9.05,-0.13,2.91,0.03,-0.01,0.05
$PENV,815786,591.22,14171.85,3.97
$PIMU,815796,9.03,-0.18,2.91,0.06,-0.01,0.05
$PIMU,815820,8.93,-0.09,3.07,0.06,-0.01,0.05
$PIMU,815845,9.13,-0.16,3.14,0.05,-0.01,0.06
$PIMU,815870,9.07,-0.11,3.10,0.04,-0.01,0.07
$PIMU,815896,9.06,-0.06,2.95,0.00,0.00,0.06
$PIMU,815920,9.03,-0.12,2.73,0.02,-0.00,0.06
$PIMU,815945,8.91,-0.17,2.84,0.06,-0.02,0.05
$PIMU,815970,9.11,-0.31,3.10,0.10,-0.04,0.06
$PIMU,815996,9.21,-0.10,3.20,0.07,-0.02,0.06
$PIMU,816020,9.13,0.00,3.07,0.02,0.01,0.06
$PENV,816031,591.14,14175.10,3.97
$PIMU,816046,9.07,-0.02,2.90,0.02,0.01,0.05
$PIMU,816070,8.98,-0.19,2.83,0.02,0.00,0.04
$PIMU,816095,9.22,-0.29,2.92,0.05,-0.00,0.05
$PIMU,816121,9.02,-0.14,3.04,0.05,0.00,0.05
$PIMU,816146,9.10,-0.06,3.09,0.04,0.01,0.04
$PIMU,816170,8.94,-0.19,2.91,0.00,-0.00,0.05
$PIMU,816195,8.90,-0.21,2.86,0.02,-0.01,0.05
$PIMU,816221,9.09,-0.13,2.85,0.06,-0.01,0.05
$PIMU,816247,9.05,-0.07,2.98,0.06,-0.00,0.05
$PIMU,816272,9.06,-0.06,3.00,0.05,0.00,0.05
$PENV,816277,591.11,14176.23,3.97
$PIMU,816296,9.00,0.04,3.03,0.03,-0.00,0.05
$GNRMC,155508.00,A,3328.23433,N,09622.11125,W,114.601,205.28,070822,,,A*69
$GNVTG,205.28,T,,M,114.601,N,212.241,K,A*2B
$GNGGA,155508.00,3328.23433,N,09622.11125,W,1,11,0.96,4617.7,M,-25.7,M,,*4B
$PTH,816337
$GNGSA,A,3,06,19,12,25,20,05,29,,,,,,1.64,0.96,1.33*17
$GNGSA,A,3,88,72,65,79,,,,,,,,,1.64,0.96,1.33*19
$GPGSV,4,1,14,02,62,005,09,05,63,195,26,06,19,060,14,09,03,040,14*7C
$GPGSV,4,2,14,11,50,038,10,12,54,214,27,13,05,152,18,15,00,183,15*77
$GPGSV,4,3,14,18,01,260,19,19,10,114,14,20,72,059,13,25,47,282,20*70
$GPGSV,4,4,14,29,25,313,17,46,51,183,32*7A
$GLGSV,3,1,10,65,41,143,14,66,00,182,16,71,11,028,18,72,44,069,16*67
$GLGSV,3,2,10,77,19,217,18,79,11,328,15,81,04,290,10,86,04,085,*63
$GLGSV,3,3,10,87,44,037,,88,41,327,12*6F
$GNGLL,3328.23433,N,09622.11125,W,155508.00,A,A*6F
$PTH,816448
$PIMU,816457,9.12,-0.03,2.99,0.01,-0.00,0.05
$PIMU,816482,9.02,-0.03,2.99,0.02,-0.01,0.05
$PIMU,816507,8.87,0.00,2.90,-0.00,0.00,0.04
$PENV,816526,591.01,14180.70,3.97
$PIMU,816532,8.99,-0.04,2.92,0.01,-0.00,0.05
$PIMU,816556,9.06,-0.06,2.95,-0.00,-0.01,0.05
$PIMU,816581,9.00,-0.03,2.86,-0.00,-0.01,0.05
$PIMU,816606,8.97,-0.06,2.95,0.04,-0.03,0.05
$PIMU,816631,9.17,-0.04,3.07,0.04,-0.03,0.05
$PIMU,816656,9.07,-0.03,2.96,-0.04,-0.01,0.05
$PIMU,816681,9.00,-0.12,2.89,-0.06,0.01,0.04
$PIMU,816706,8.88,-0.33,2.79,-0.04,-0.00,0.05
$PIMU,816731,9.04,-0.26,2.91,-0.02,-0.01,0.06
$PIMU,816756,9.03,-0.13,2.89,-0.04,-0.01,0.07
$PENV,816768,590.99,14181.49,3.97
$PIMU,816781,9.00,-0.09,2.85,-0.04,0.00,0.07
$PIMU,816806,8.92,-0.15,2.84,-0.02,0.01,0.05
$PIMU,816832,9.05,-0.30,2.86,0.04,-0.00,0.04
$PIMU,816857,9.06,-0.22,3.02,0.06,0.01,0.04
$PIMU,816881,9.01,-0.10,2.95,0.04,0.00,0.05
$PIMU,816906,8.92,-0.11,2.91,0.03,-0.00,0.04
$PIMU,816931,8.99,-0.18,2.89,0.03,-0.01,0.05
$PIMU,816957,9.07,-0.16,3.00,0.06,-0.02,0.04
$PIMU,816981,9.02,-0.08,3.03,0.06,-0.02,0.05
$PIMU,817006,9.02,-0.05,3.04,0.02,-0.02,0.05
$PENV,817014,590.92,14184.40,3.97
$PIMU,817033,8.93,-0.14,2.89,-0.01,0.01,0.05
$PIMU,817058,9.13,-0.30,2.83,0.01,-0.01,0.05
$PIMU,817082,9.10,-0.17,2.85,0.02,-0.00,0.06
$PIMU,817108,9.01,-0.01,2.90,0.01,-0.00,0.04
$PIMU,817132,8.94,-0.07,3.02,0.01,0.00,0.03
$PIMU,817157,9.01,-0.29,3.04,0.01,0.01,0.04
$PIMU,817182,9.05,-0.33,2.94,0.03,0.01,0.06
$PIMU,817208,9.05,-0.16,2.81,0.02,0.03,0.06
$PIMU,817232,9.03,-0.18,2.90,0.04,0.01,0.05
$PIMU,817257,8.79,-0.46,2.94,0.17,-0.01,0.07
$PENV,817262,590.85,14187.50,3.97
$PIMU,817282,8.96,-0.52,2.72,0.22,-0.02,0.12
$PIMU,817328,9.17,-0.22,2.78,0.09,-0.03,0.14
$PIMU,817354,9.19,-0.47,2.72,0.10,-0.03,0.13
$GNRMC,155509.00,A,3328.20486,N,09622.12792,W,115.039,204.68,070822,,,A*65
$GNVTG,204.68,T,,M,115.039,N,213.052,K,A*23
$GNGGA,155509.00,3328.20486,N,09622.12792,W,1,11,0.93,4617.7,M,-25.7,M,,*4B
$PTH,817383
$GNGSA,A,3,06,19,02,12,25,20,05,29,,,,,1.52,0.93,1.21*16
$GNGSA,A,3,72,65,79,,,,,,,,,,1.52,0.93,1.21*1A
$GPGSV,4,1,14,02,62,005,12,05,63,195,25,06,19,060,15,09,03,040,12*72
$GPGSV,4,2,14,11,50,038,09,12,54,214,26,13,05,152,18,15,00,183,14*7F
$GPGSV,4,3,14,18,01,260,21,19,10,114,14,20,72,059,13,25,47,282,19*71
$GPGSV,4,4,14,29,25,313,20,46,51,183,30*7C
$GLGSV,3,1,10,65,41,143,13,66,00,182,16,71,11,028,17,72,44,069,14*6D
$GLGSV,3,2,10,77,19,217,18,79,11,328,14,81,04,290,13,86,04,085,*61
$GLGSV,3,3,10,87,44,037,,88,41,327,10*6D
$GNGLL,3328.20486,N,09622.12792,W,155509.00,A,A*6A
$PTH,817517
$PIMU,817528,8.97,-0.25,2.86,0.05,-0.01,0.05
$PIMU,817553,9.06,-0.19,2.85,0.07,-0.01,0.06
$PIMU,817577,9.06,-0.09,2.91,0.07,-0.00,0.06
$PIMU,817602,9.11,0.05,2.91,0.04,0.01,0.05
$PIMU,817628,8.94,-0.00,2.92,0.00,0.01,0.03
$PIMU,817652,8.80,-0.12,2.92,0.02,-0.00,0.02
$PIMU,817677,8.97,-0.17,2.85,0.03,-0.03,0.03
$PIMU,817702,9.13,-0.29,2.84,0.05,-0.02,0.03
$PIMU,817728,9.06,-0.37,2.93,0.09,-0.01,0.04
$PENV,817750,590.74,14191.81,3.97
$PIMU,817754,8.96,-0.07,2.90,0.08,-0.02,0.06
$PIMU,817778,8.99,-0.01,2.97,0.07,-0.02,0.06
$PIMU,817803,9.09,0.09,3.01,0.06,-0.01,0.05
$PIMU,817829,9.06,0.12,3.06,0.02,-0.00,0.04
$PIMU,817853,9.12,-0.05,3.03,-0.03,-0.01,0.04
$PIMU,817879,9.06,-0.17,2.91,-0.04,-0.01,0.04
$PIMU,817904,8.96,-0.18,2.85,-0.02,-0.01,0.05
$PIMU,817928,8.90,-0.16,2.93,0.01,-0.02,0.04
$PIMU,817953,9.04,-0.19,2.93,0.03,-0.03,0.04
$PIMU,817978,9.05,-0.11,2.93,0.03,-0.03,0.04
$PENV,817995,590.69,14193.86,3.97
$PIMU,818004,9.12,-0.16,2.92,0.04,-0.03,0.04
$PIMU,818029,9.10,-0.30,2.88,0.03,-0.03,0.04
$PIMU,818054,9.04,-0.23,2.85,0.05,-0.02,0.06
$PIMU,818079,9.15,-0.14,2.91,0.06,-0.02,0.06
$PIMU,818104,9.10,-0.02,2.91,0.06,-0.02,0.05
$PIMU,818129,9.11,-0.03,2.98,0.05,-0.02,0.05
$PIMU,818155,9.03,-0.02,2.97,0.02,-0.02,0.04
$PIMU,818180,9.05,-0.06,2.89,0.02,-0.02,0.04
$PIMU,818204,8.97,-0.12,2.89,0.03,-0.03,0.04
$PIMU,818229,8.98,-0.11,2.92,0.05,-0.03,0.04
$PENV,818241,590.69,14193.95,3.97
$PIMU,818254,9.08,-0.14,2.90,0.06,-0.04,0.04
$PIMU,818280,9.13,-0.12,2.94,0.08,-0.04,0.05
$PIMU,818305,9.23,-0.11,2.94,0.05,-0.03,0.05
$PIMU,818329,9.16,-0.14,2.88,0.01,-0.01,0.04
$GNRMC,155510.00,A,3328.17622,N,09622.14355,W,112.010,204.47,070822,,,A*6D
$GNVTG,204.47,T,,M,112.010,N,207.442,K,A*22
$GNGGA,155510.00,3328.17622,N,09622.14355,W,1,11,0.94,4620.2,M,-25.7,M,,*44
$PTH,818371
$GNGSA,A,3,06,19,02,12,25,20,05,29,,,,,1.56,0.94,1.25*11
$GNGSA,A,3,71,65,79,,,,,,,,,,1.56,0.94,1.25*1E
$GPGSV,4,1,14,02,62,005,15,05,63,195,25,06,19,060,13,09,03,040,10*71
$GPGSV,4,2,14,11,50,038,08,12,54,214,25,13,05,152,17,15,00,183,09*7E
$GPGSV,4,3,14,18,01,260,21,19,10,114,12,20,72,059,14,25,47,282,17*7E
$GPGSV,4,4,14,29,25,313,22,46,51,183,28*77
$GLGSV,3,1,10,65,41,143,12,66,00,182,16,71,11,028,16,72,44,069,09*61
$GLGSV,3,2,10,77,19,217,15,79,11,328,14,81,04,290,15,86,04,085,*6A
$GLGSV,3,3,10,87,44,037,,88,41,327,10*6D
$GNGLL,3328.17622,N,09622.14355,W,155510.00,A,A*63
$PTH,818466
$PIMU,818475,9.21,-0.04,2.95,-0.01,-0.01,0.06
$PENV,818486,590.63,14196.48,3.97
$PIMU,818499,9.03,-0.38,2.69,-0.01,-0.01,0.08
$PIMU,818525,8.97,-0.67,2.69,0.07,-0.03,0.13
$PIMU,818550,9.17,-0.64,2.45,0.18,-0.05,0.17
$PIMU,818575,9.32,-1.05,2.93,0.22,-0.03,0.23
$PIMU,818599,9.28,-0.70,3.33,0.17,0.01,0.31
$PIMU,818624,9.12,-0.33,3.44,0.15,0.04,0.34
$PIMU,818649,9.15,-0.01,3.30,0.24,0.06,0.29
$PIMU,818675,9.65,0.32,3.76,0.40,0.15,0.16
$PIMU,818699,10.07,0.57,4.55,0.39,0.31,-0.01
$PIMU,818724,9.83,0.63,5.33,0.23,0.53,-0.22
$PENV,818731,590.69,14193.99,3.97
$PIMU,818749,9.87,0.45,5.43,0.23,0.82,-0.34
$PIMU,818775,10.06,0.81,5.67,-0.04,1.03,-0.56
$PIMU,818800,10.23,0.87,5.31,-0.03,1.32,-0.71
$PIMU,818824,9.34,1.19,5.59,0.18,1.71,-0.55
$PIMU,818849,9.37,0.93,5.57,-0.32,1.90,-0.50
$PIMU,818875,9.20,0.13,5.51,-0.49,2.01,-0.54
$PIMU,818899,8.53,-0.14,4.98,-0.67,2.05,-0.30
$PIMU,818924,8.74,0.31,4.75,-0.86,2.26,-0.16
$PIMU,818949,8.05,-1.32,4.37,-0.83,2.18,-0.07
$PIMU,818974,7.65,-0.67,4.47,-0.52,2.07,-0.13
$PENV,818980,590.58,14198.65,3.97
$PIMU,819000,6.59,-0.32,4.73,-0.32,1.83,-0.09
$PIMU,819024,5.20,-0.34,4.54,-0.19,1.40,0.01
$PIMU,819049,5.46,0.30,4.65,-0.05,1.10,-0.02
$PIMU,819074,4.74,0.47,5.27,-0.11,0.89,-0.06
$PIMU,819099,4.82,0.05,5.79,-0.08,0.66,-0.13
$PIMU,819124,4.13,-0.07,6.12,0.05,0.58,-0.21
$PIMU,819150,4.23,0.29,6.58,0.07,0.48,-0.22
$PIMU,819174,4.28,0.03,6.53,-0.08,0.34,-0.18
$PIMU,819199,4.35,-0.03,6.54,-0.15,0.21,-0.13
$PENV,819222,590.49,14202.38,3.97
$PIMU,819226,4.99,-0.48,6.92,0.01,0.12,-0.09
$PIMU,819251,5.35,-0.49,7.29,0.09,0.04,-0.09
$PIMU,819276,5.03,-0.72,7.02,-0.13,-0.08,-0.04
$PIMU,819301,4.95,-0.48,7.03,-0.20,-0.18,-0.02
$PIMU,819327,5.06,-0.16,7.40,-0.00,-0.15,0.02
$PIMU,819351,5.32,-0.26,7.66,0.20,-0.10,0.00
$PIMU,819376,5.28,-0.87,6.90,0.16,-0.17,0.03
$GNRMC,155511.00,A,3328.14877,N,09622.15866,W,107.757,204.97,070822,,,A*66
$GNVTG,204.97,T,,M,107.757,N,199.565,K,A*2F
$GNGGA,155511.00,3328.14877,N,09622.15866,W,1,11,0.92,4624.1,M,-25.6,M,,*42
$PTH,819399
$GNGSA,A,3,11,06,19,02,12,25,20,05,29,,,,1.47,0.92,1.15*14
$GNGSA,A,3,71,79,,,,,,,,,,,1.47,0.92,1.15*18
$GPGSV,4,1,14,02,62,005,17,05,63,195,31,06,19,060,13,09,03,040,08*7F
$GPGSV,4,2,14,11,50,038,11,12,54,214,35,13,05,152,17,15,00,183,10*7F
$GPGSV,4,3,14,18,01,260,24,19,10,114,11,20,72,059,14,25,47,282,17*78
$GPGSV,4,4,14,29,25,313,21,46,51,183,28*74
$GLGSV,3,1,10,65,41,143,10,66,00,182,15,71,11,028,15,72,44,069,*6A
$GLGSV,3,2,10,77,19,217,14,79,11,328,12,81,04,290,11,86,04,085,*69
$GLGSV,3,3,10,87,44,037,,88,41,327,08*64
$GNGLL,3328.14877,N,09622.15866,W,155511.00,A,A*65
$PTH,819501
$PIMU,819512,5.66,0.18,6.85,0.29,-0.62,0.03
$PIMU,819536,5.87,0.58,7.25,0.34,-0.51,0.03
$PIMU,819561,5.92,0.84,7.92,0.27,-0.35,0.05
$PIMU,819586,6.21,0.79,8.31,0.22,-0.14,0.01
$PIMU,819611,5.54,-0.15,6.92,-0.07,-0.22,0.01
$PIMU,819637,5.61,-0.09,6.09,0.07,-0.23,0.05
$PIMU,819661,5.99,0.70,6.51,0.28,-0.11,0.07
$PIMU,819686,5.70,1.37,7.43,0.20,-0.04,0.04
$PIMU,819711,5.33,0.97,7.14,0.04,-0.06,0.02
$PENV,819716,590.37,14207.76,3.97
$PIMU,819736,5.31,0.46,6.71,0.04,-0.11,0.05
$PIMU,819761,5.17,-0.31,5.77,0.24,-0.23,0.04
$PIMU,819787,4.93,-0.28,5.18,0.38,-0.40,0.08
$PIMU,819812,5.19,-0.33,4.84,0.51,-0.61,0.14
$PIMU,819837,5.58,-0.74,4.56,0.54,-0.76,0.31
$PIMU,819861,6.80,-0.24,4.83,0.63,-0.88,0.46
$PIMU,819886,6.98,0.93,5.78,0.79,-0.92,0.37
$PIMU,819911,6.84,1.37,5.71,0.91,-0.96,0.26
$PIMU,819937,6.56,1.10,4.48,0.93,-1.14,0.37
$PENV,819958,590.24,14213.16,3.97
$PIMU,819962,7.61,1.18,4.48,0.79,-1.24,0.43
$PIMU,819987,8.32,2.51,5.57,0.79,-1.15,0.29
$PIMU,820012,7.84,3.13,6.11,0.86,-1.18,0.25
$PIMU,820038,7.65,1.70,5.93,0.80,-1.20,0.31
$PIMU,820063,8.44,0.53,5.23,0.24,-1.37,0.46
$PIMU,820087,8.96,1.09,5.07,-0.04,-1.16,0.47
$PIMU,820112,9.16,1.99,5.76,0.03,-1.05,0.49
$PIMU,820137,9.31,1.25,4.44,-0.17,-1.02,0.50
$PIMU,820162,9.38,0.14,4.36,-0.39,-0.78,0.53
$PIMU,820187,9.06,0.18,4.52,-0.33,-0.70,0.46
$PENV,820204,590.21,14214.33,3.97
$PIMU,820213,9.18,1.22,3.99,-0.25,-0.59,0.42
$PIMU,820238,9.52,0.35,4.90,-0.05,-0.54,0.29
$PIMU,820262,9.52,0.08,4.49,-0.09,-0.39,0.20
$PIMU,820287,9.25,0.62,4.39,-0.08,-0.17,0.21
$PIMU,820312,9.63,1.11,4.77,-0.16,0.06,0.18
$GNRMC,155512.00,A,3328.12168,N,09622.17325,W,107.268,203.67,070822,,,A*6B
$GNVTG,203.67,T,,M,107.268,N,198.660,K,A*29
$GNGGA,155512.00,3328.12168,N,09622.17325,W,1,11,0.93,4628.2,M,-25.6,M,,*40
$PTH,820342
$GNGSA,A,3,11,06,19,02,12,25,20,05,29,,,,1.58,0.93,1.28*15
$GNGSA,A,3,71,65,,,,,,,,,,,1.58,0.93,1.28*14
$GPGSV,4,1,14,02,62,005,18,05,63,195,31,06,19,060,12,09,03,040,*79
$GPGSV,4,2,14,11,50,038,17,12,54,214,31,13,05,152,19,15,00,183,10*73
$GPGSV,4,3,14,18,01,260,24,19,10,114,16,20,72,059,16,25,47,282,17*7D
$GPGSV,4,4,14,29,25,313,22,46,51,183,27*78
$GLGSV,3,1,10,65,41,143,11,66,00,182,13,71,11,028,13,72,44,069,*6B
$GLGSV,3,2,10,77,19,217,13,79,11,328,10,81,04,290,09,86,04,085,*65
$GLGSV,3,3,10,87,44,037,,88,41,327,09*65
$GNGLL,3328.12168,N,09622.17325,W,155512.00,A,A*69
$PTH,820445
$PENV,820453,590.23,14213.64,3.97
$PIMU,820458,8.75,0.16,4.56,-0.77,0.95,-0.22
$PIMU,820482,8.74,0.00,4.36,-0.75,0.96,-0.21
$PIMU,820506,8.39,-0.41,4.20,-0.65,0.92,-0.17
$PIMU,820531,8.17,-0.45,4.08,-0.45,0.83,-0.15
$PIMU,820556,7.91,-0.31,3.88,-0.25,0.74,-0.12
$PIMU,820581,8.03,-0.42,3.99,-0.19,0.64,-0.10
$PIMU,820606,7.78,-0.41,4.11,-0.14,0.52,-0.09
$PIMU,820631,7.63,-0.16,4.43,-0.11,0.42,-0.08
$PIMU,820656,7.63,-0.18,4.68,-0.12,0.33,-0.08
$PIMU,820681,7.45,-0.18,4.69,-0.08,0.25,-0.08
$PENV,820695,590.25,14212.68,3.97
$PIMU,820706,7.63,-0.16,4.85,-0.10,0.19,-0.07
$PIMU,820731,7.59,-0.23,5.21,-0.15,0.17,-0.08
$PIMU,820756,7.54,-0.20,5.38,-0.15,0.15,-0.08
$PIMU,820782,7.51,-0.31,5.46,-0.16,0.16,-0.05
$PIMU,820806,7.42,-0.20,5.64,-0.18,0.17,-0.04
$PIMU,820831,7.34,-0.09,5.72,-0.17,0.18,-0.05
$PIMU,820857,7.48,-0.17,5.56,-0.20,0.17,-0.02
$PIMU,820881,7.35,-0.43,5.26,-0.23,0.14,0.00
$PIMU,820906,7.13,-0.60,4.97,-0.19,0.07,0.01
$PIMU,820931,7.34,-0.68,4.73,-0.08,-0.02,0.01
$PENV,820940,590.09,14219.38,3.97
$PIMU,820956,7.54,-0.59,4.70,0.06,-0.09,-0.01
$PIMU,820981,7.43,-0.49,4.92,0.11,-0.16,-0.01
$PIMU,821006,7.59,-0.49,5.34,0.12,-0.19,0.00
$PIMU,821031,7.87,-0.32,5.70,0.12,-0.19,-0.00
$PIMU,821056,7.78,-0.23,5.95,0.10,-0.14,0.00
$PIMU,821085,7.61,-0.21,6.00,0.02,-0.08,0.01
$PIMU,821106,7.68,-0.24,5.92,-0.04,-0.01,0.03
$PIMU,821131,7.81,-0.08,5.90,-0.09,0.07,0.03
$PIMU,821157,7.72,0.13,5.79,-0.16,0.13,0.02
$PIMU,821181,7.54,-0.08,5.67,-0.21,0.16,0.00
$PENV,821186,590.13,14217.70,3.97
$PIMU,821206,7.64,-0.30,5.46,-0.20,0.16,0.00
$PIMU,821231,7.57,-0.40,5.35,-0.18,0.15,0.01
$PIMU,821256,7.40,-0.52,5.34,-0.14,0.14,0.00
$PIMU,821281,7.35,-0.50,5.33,-0.10,0.10,0.00
$PIMU,821306,7.53,-0.53,5.36,-0.09,0.08,0.02
$PIMU,821331,7.42,-0.49,5.46,-0.07,0.08,0.02
$PIMU,821356,7.39,-0.44,5.52,-0.05,0.08,0.02
$GNRMC,155513.00,A,3328.09461,N,09622.18725,W,106.484,203.20,070822,,,A*61
$GNVTG,203.20,T,,M,106.484,N,197.209,K,A*2B
$GNGGA,155513.00,3328.09461,N,09622.18725,W,1,12,0.90,4631.5,M,-25.6,M,,*43
$PTH,821383
$GNGSA,A,3,11,06,19,02,12,25,20,05,29,,,,1.45,0.90,1.14*15
$GNGSA,A,3,71,88,79,,,,,,,,,,1.45,0.90,1.14*19
$GPGSV,4,1,14,02,62,005,19,05,63,195,30,06,19,060,14,09,03,040,*7F
$GPGSV,4,2,14,11,50,038,17,12,54,214,30,13,05,152,18,15,00,183,12*71
$GPGSV,4,3,14,18,01,260,25,19,10,114,16,20,72,059,16,25,47,282,18*73
$GPGSV,4,4,14,29,25,313,20,46,51,183,27*7A
$GLGSV,3,1,10,65,41,143,10,66,00,182,12,71,11,028,11,72,44,069,*69
$GLGSV,3,2,10,77,19,217,15,79,11,328,11,81,04,290,08,86,04,085,*63
$GLGSV,3,3,10,87,44,037,,88,41,327,12*6F
$GNGLL,3328.09461,N,09622.18725,W,155513.00,A,A*65
$PTH,821483
$PIMU,821494,7.48,-0.29,5.63,-0.06,0.06,0.06
$PIMU,821519,7.35,-0.32,5.52,-0.07,0.06,0.04
$PIMU,821543,7.11,-0.52,5.44,-0.06,0.02,0.03
$PIMU,821568,7.14,-0.74,5.30,0.03,-0.02,0.04
$PIMU,821594,7.47,-0.54,5.37,0.10,-0.06,0.05
$PIMU,821618,7.36,-0.34,5.56,0.12,-0.08,0.04
$PIMU,821643,7.18,-0.34,5.60,0.09,-0.08,0.04
$PIMU,821668,7.44,-0.36,5.56,0.08,-0.08,0.04
$PENV,821676,590.06,14220.64,3.97
$PIMU,821693,7.42,-0.42,5.54,0.09,-0.10,0.04
$PIMU,821718,7.31,-0.37,5.50,0.10,-0.11,0.05
$PIMU,821743,7.43,-0.33,5.52,0.10,-0.11,0.06
$PIMU,821768,7.55,-0.37,5.63,0.10,-0.12,0.06
$PIMU,821793,7.37,-0.22,5.68,0.10,-0.11,0.06
$PIMU,821818,7.55,-0.15,5.70,0.08,-0.10,0.05
$PIMU,821844,7.61,-0.19,5.69,0.06,-0.09,0.04
$PIMU,821868,7.54,-0.23,5.76,0.04,-0.07,0.04
$PIMU,821893,7.50,-0.30,5.77,0.02,-0.05,0.04
$PIMU,821919,7.70,-0.23,5.73,0.01,-0.03,0.05
$PENV,821924,590.00,14223.08,3.97
$PIMU,821944,7.56,-0.12,5.75,-0.02,-0.01,0.05
$PIMU,821969,7.46,-0.14,5.67,-0.04,0.01,0.05
$PIMU,821993,7.71,-0.17,5.60,-0.05,0.02,0.06
$PIMU,822018,7.65,-0.19,5.62,-0.03,0.03,0.05
$PIMU,822044,7.50,-0.32,5.69,-0.02,0.03,0.05
$PIMU,822069,7.52,-0.28,5.64,-0.02,0.04,0.05
$PIMU,822093,7.55,-0.31,5.69,-0.05,0.04,0.04
$PIMU,822118,7.48,-0.24,5.85,-0.08,0.07,0.04
$PIMU,822143,7.52,-0.31,5.59,-0.09,0.07,0.05
$PENV,822167,589.96,14225.03,3.97
$PIMU,822171,7.44,-0.42,5.40,-0.12,0.05,0.05
$PIMU,822197,7.47,-0.53,5.40,-0.09,0.01,0.05
$PIMU,822221,7.43,-0.53,5.40,-0.02,-0.04,0.05
$PIMU,822246,7.44,-0.48,5.43,0.02,-0.09,0.05
$PIMU,822272,7.42,-0.36,5.65,0.04,-0.12,0.04
$PIMU,822297,7.47,-0.24,5.71,0.04,-0.12,0.04
$GNRMC,155514.00,A,3328.06774,N,09622.20096,W,105.645,203.03,070822,,,A*67
$GNVTG,203.03,T,,M,105.645,N,195.654,K,A*28
$GNGGA,155514.00,3328.06774,N,09622.20096,W,1,12,0.85,4635.1,M,-25.6,M,,*4C
$PTH,822322
$GNGSA,A,3,11,06,19,02,12,25,20,05,29,,,,1.42,0.85,1.14*16
$GNGSA,A,3,71,88,65,79,,,,,,,,,1.42,0.85,1.14*19
$GPGSV,4,1,13,02,62,005,22,05,63,195,30,06,19,060,17,09,03,040,*73
$GPGSV,4,2,13,11,50,038,19,12,54,214,29,13,05,152,19,15,00,183,16*75
$GPGSV,4,3,13,18,01,260,23,19,10,114,13,20,72,059,16,25,47,282,23*7F
$GPGSV,4,4,13,29,25,313,17*40
$GLGSV,3,1,10,65,42,143,10,66,00,182,09,71,11,028,14,72,44,069,*65
$GLGSV,3,2,10,77,19,217,16,79,11,328,13,81,04,290,13,86,04,085,*68
$GLGSV,3,3,10,87,44,037,,88,41,327,14*69
$GNGLL,3328.06774,N,09622.20096,W,155514.00,A,A*6E
$PTH,822416
$PIMU,822429,7.81,-0.67,5.35,-0.08,-0.14,0.07
$PIMU,822453,7.60,-0.57,5.26,-0.13,-0.18,0.09
$PIMU,822478,7.68,-0.37,5.13,-0.23,-0.23,0.10
$PIMU,822503,7.87,-0.37,5.15,-0.33,-0.29,0.10
$PIMU,822528,7.86,-0.43,5.13,-0.40,-0.34,0.07
$PIMU,822553,7.60,-0.48,5.10,-0.40,-0.38,0.03
$PIMU,822579,7.93,-0.45,5.07,-0.35,-0.44,0.02
$PIMU,822604,8.18,-0.13,5.12,-0.46,-0.47,-0.03
$PIMU,822628,7.85,-0.17,5.16,-0.45,-0.48,-0.10
$PIMU,822653,8.03,-0.25,5.12,-0.41,-0.50,-0.16
$PENV,822658,589.97,14224.60,3.97
$PIMU,822678,8.51,-0.51,5.08,-0.43,-0.51,-0.22
$PIMU,822703,8.48,-0.38,5.10,-0.49,-0.48,-0.31
$PIMU,822728,8.42,-0.38,5.25,-0.48,-0.42,-0.33
$PIMU,822753,8.61,-0.61,5.25,-0.45,-0.38,-0.36
$PIMU,822778,8.70,-0.84,4.75,-0.53,-0.39,-0.35
$PIMU,822803,8.54,-1.10,4.26,-0.56,-0.38,-0.29
$PIMU,822829,8.43,-1.45,3.64,-0.32,-0.46,-0.28
$PIMU,822853,8.70,-2.34,3.71,0.18,-0.53,-0.20
$PIMU,822878,8.25,-2.46,3.32,0.35,-0.44,-0.14
$PENV,822903,589.88,14228.43,3.97
$PIMU,822907,8.49,-3.76,2.48,0.51,-0.50,0.22
$PIMU,822931,10.30,-2.60,3.81,0.54,-0.46,0.57
$PIMU,822957,10.89,1.14,6.06,0.41,-0.34,0.38
$PIMU,822982,9.08,3.50,7.02,0.08,0.02,0.01
$PIMU,823006,8.64,0.25,5.16,-0.44,0.19,-0.11
$PIMU,823031,8.53,-1.60,3.40,-0.67,0.21,-0.06
$PIMU,823057,8.50,-1.76,2.53,-0.40,0.10,0.02
$PIMU,823081,8.71,-1.59,2.66,0.05,-0.05,0.06
$PIMU,823106,8.97,-1.12,3.35,0.37,-0.14,0.05
$PIMU,823132,9.02,-0.71,4.11,0.39,-0.14,0.05
$PENV,823149,589.85,14229.54,3.97
$PIMU,823157,9.03,-0.46,4.54,0.20,-0.07,0.04
$PIMU,823182,9.17,-0.72,4.28,-0.01,-0.02,0.04
$PIMU,823207,9.07,-1.19,3.78,-0.06,0.00,0.05
$PIMU,823233,8.70,-1.09,3.67,-0.00,0.01,0.07
$PIMU,823257,8.77,-0.82,3.71,0.07,-0.01,0.07
$PIMU,823282,8.81,-0.67,3.82,0.10,-0.02,0.06
$PIMU,823307,8.82,-0.65,3.88,0.07,-0.03,0.05
$PIMU,823332,8.87,-0.75,3.87,0.07,-0.03,0.05
$GNRMC,155515.00,A,3328.04073,N,09622.21443,W,105.599,202.16,070822,,,A*6E
$GNVTG,202.16,T,,M,105.599,N,195.569,K,A*22
$GNGGA,155515.00,3328.04073,N,09622.21443,W,1,11,1.16,4638.1,M,-25.6,M,,*47
$PTH,823357
$GNGSA,A,3,11,06,02,12,25,20,05,29,,,,,1.91,1.16,1.53*18
$GNGSA,A,3,71,88,79,,,,,,,,,,1.91,1.16,1.53*1C
$GPGSV,4,1,13,02,62,005,21,05,63,195,28,06,19,060,14,09,03,040,18*73
$GPGSV,4,2,13,11,50,038,17,12,54,214,29,13,05,152,20,15,00,183,19*7E
$GPGSV,4,3,13,18,01,260,22,19,10,114,10,20,72,059,12,25,47,282,23*79
$GPGSV,4,4,13,29,25,313,17*40
$GLGSV,3,1,10,65,42,143,,66,00,182,08,71,11,028,11,72,44,069,*60
$GLGSV,3,2,10,77,19,217,16,79,11,328,15,81,04,290,16,86,04,085,*6B
$GLGSV,3,3,10,87,44,037,,88,41,327,13*6E
$GNGLL,3328.04073,N,09622.21443,W,155515.00,A,A*60
$PTH,823454
$PIMU,823467,9.00,-0.54,3.87,0.06,-0.01,0.05
$PIMU,823491,8.95,-0.73,3.84,0.03,-0.01,0.04
$PIMU,823517,8.79,-0.87,3.78,0.03,-0.01,0.05
$PIMU,823542,8.94,-0.82,3.79,0.06,-0.01,0.06
$PIMU,823566,8.86,-0.80,3.77,0.07,-0.02,0.06
$PIMU,823592,8.63,-0.82,3.83,0.07,-0.02,0.05
$PIMU,823616,8.84,-0.72,3.92,0.09,-0.02,0.06
$PENV,823639,589.78,14232.38,3.97
$PIMU,823643,9.03,-0.62,3.81,0.06,-0.02,0.05
$PIMU,823668,8.93,-0.76,3.73,0.04,-0.02,0.05
$PIMU,823693,8.87,-0.80,3.75,0.05,-0.02,0.05
$PIMU,823718,8.96,-0.87,3.76,0.09,-0.03,0.06
$PIMU,823743,8.75,-0.83,3.87,0.09,-0.03,0.06
$PIMU,823768,8.67,-0.66,3.88,0.08,-0.03,0.06
$PIMU,823793,8.90,-0.56,3.89,0.07,-0.03,0.05
$PIMU,823818,9.00,-0.63,3.77,0.03,-0.02,0.05
$PIMU,823844,8.78,-0.77,3.73,0.01,-0.02,0.04
$PIMU,823868,8.84,-0.88,3.62,0.03,-0.03,0.05
$PENV,823885,590.06,14220.82,3.97
$PIMU,823894,9.01,-0.95,3.73,0.08,-0.04,0.05
$PIMU,823919,8.85,-0.79,3.85,0.08,-0.03,0.06
$PIMU,823945,8.66,-0.55,3.80,0.03,-0.02,0.05
$PIMU,823969,8.83,-0.65,3.62,0.05,-0.02,0.05
$PIMU,823994,9.02,-0.75,3.70,0.08,-0.03,0.04
$PIMU,824019,8.92,-0.77,3.77,0.06,-0.02,0.05
$PIMU,824045,8.98,-0.95,3.59,0.03,-0.01,0.07
$PIMU,824069,8.84,-1.05,3.44,0.07,-0.02,0.08
$PIMU,824094,8.60,-0.73,3.69,0.14,-0.04,0.07
$PIMU,824119,8.91,-0.52,3.98,0.18,-0.05,0.05
$PENV,824131,589.47,14245.84,3.97
$PIMU,824144,9.17,-0.32,4.04,0.08,-0.03,0.05
$PIMU,824169,8.94,-0.41,3.85,-0.04,0.00,0.05
$PIMU,824194,8.78,-0.80,3.47,-0.04,0.00,0.06
$PIMU,824219,8.89,-0.98,3.44,0.09,-0.04,0.05
$PIMU,824244,9.04,-0.87,3.75,0.15,-0.06,0.06
$PIMU,824269,8.91,-0.51,3.94,0.08,-0.03,0.06
$PIMU,824294,8.99,-0.46,3.85,0.01,-0.01,0.05
$PIMU,824319,8.92,-0.68,3.63,-0.02,-0.01,0.04
$PIMU,824344,8.71,-0.79,3.59,0.01,-0.02,0.04
$PIMU,824369,8.99,-0.70,3.66,0.05,-0.03,0.06
$PENV,824376,589.27,14254.07,3.97
$GNRMC,155516.00,A,3328.01366,N,09622.22722,W,104.807,201.03,070822,,,A*64
$GNVTG,201.03,T,,M,104.807,N,194.103,K,A*27
$GNGGA,155516.00,3328.01366,N,09622.22722,W,1,10,1.18,4640.4,M,-25.6,M,,*44
$PTH,824397
$GNGSA,A,3,11,06,02,12,25,20,05,29,,,,,2.03,1.18,1.65*1B
$GNGSA,A,3,88,79,,,,,,,,,,,2.03,1.18,1.65*19
$GPGSV,4,1,13,02,62,005,18,05,63,195,26,06,19,060,14,09,03,040,18*77
$GPGSV,4,2,13,11,50,038,15,12,54,214,28,13,05,152,19,15,00,183,19*77
$GPGSV,4,3,13,18,01,260,19,19,10,114,08,20,72,059,13,25,47,282,24*7E
$GPGSV,4,4,13,29,25,313,17*40
$GLGSV,3,1,10,65,42,143,,66,00,182,,71,11,028,08,72,44,069,*60
$GLGSV,3,2,10,77,19,217,15,79,11,328,14,81,04,290,15,86,04,085,*6A
$GLGSV,3,3,10,87,44,037,,88,41,327,10*6D
$GNGLL,3328.01366,N,09622.22722,W,155516.00,A,A*66
$PTH,824494
$PIMU,824506,9.07,-0.63,3.70,0.03,-0.02,0.05
$PIMU,824531,8.88,-0.78,3.57,0.00,-0.01,0.05
$PIMU,824555,8.94,-0.74,3.53,0.04,-0.03,0.05
$PIMU,824581,9.06,-0.81,3.56,0.09,-0.04,0.06
$PIMU,824606,8.96,-0.71,3.71,0.11,-0.03,0.05
$PENV,824621,589.20,14257.26,3.97
$PIMU,824630,8.84,-0.52,3.76,0.08,-0.02,0.05
$PIMU,824655,9.03,-0.49,3.78,0.06,-0.03,0.05
$PIMU,824680,9.02,-0.58,3.70,0.03,-0.02,0.04
$PIMU,824705,8.72,-0.61,3.63,0.02,-0.02,0.04
$PIMU,824730,8.90,-0.62,3.57,0.03,-0.03,0.04
$PIMU,824755,9.11,-0.79,3.59,0.05,-0.04,0.04
$PIMU,824780,8.89,-0.78,3.56,0.04,-0.03,0.05
$PIMU,824805,8.84,-0.71,3.59,0.08,-0.03,0.05
$PIMU,824830,9.05,-0.69,3.62,0.09,-0.04,0.05
$PIMU,824856,8.93,-0.65,3.63,0.06,-0.03,0.05
$PENV,824866,589.18,14258.19,3.97
$PIMU,824881,8.80,-0.59,3.60,0.02,-0.02,0.05
$PIMU,824906,8.96,-0.61,3.51,0.05,-0.03,0.05
$PIMU,824930,8.95,-0.79,3.50,0.06,-0.03,0.05
$PIMU,824955,8.76,-0.71,3.54,0.08,-0.03,0.05
$PIMU,824981,8.94,-0.64,3.74,0.13,-0.04,0.05
$PIMU,825006,9.09,-0.55,3.73,0.10,-0.03,0.05
$PIMU,825030,8.87,-0.51,3.63,0.02,-0.01,0.05
$PIMU,825055,8.81,-0.50,3.56,-0.02,-0.01,0.06
$PIMU,825081,8.98,-0.63,3.40,0.00,-0.02,0.05
$PIMU,825105,8.87,-0.75,3.41,0.05,-0.03,0.05
$PENV,825112,589.10,14261.37,3.97
$PIMU,825130,8.87,-0.67,3.58,0.08,-0.03,0.06
$PIMU,825156,9.09,-0.62,3.64,0.11,-0.03,0.06
$PIMU,825181,9.01,-0.50,3.66,0.06,-0.02,0.05
$PIMU,825205,8.88,-0.52,3.70,0.01,-0.01,0.05
$PIMU,825230,8.99,-0.62,3.56,-0.00,-0.01,0.04
$PIMU,825256,8.99,-0.82,3.51,0.01,-0.01,0.05
$PIMU,825281,8.90,-0.76,3.35,0.00,-0.00,0.06
$PIMU,825305,8.89,-0.75,3.40,0.06,-0.01,0.07
$GNRMC,155517.00,A,3327.98698,N,09622.23911,W,101.533,200.01,070822,,,A*6D
$GNVTG,200.01,T,,M,101.533,N,188.040,K,A*20
$GNGGA,155517.00,3327.98698,N,09622.23911,W,1,10,1.18,4643.2,M,-25.6,M,,*44
$PTH,825337
$GNGSA,A,3,11,06,02,12,25,20,05,29,,,,,2.03,1.18,1.65*1B
$GNGSA,A,3,88,79,,,,,,,,,,,2.03,1.18,1.65*19
$GPGSV,4,1,13,02,62,005,14,05,63,195,26,06,19,060,17,09,03,040,15*75
$GPGSV,4,2,13,11,50,038,14,12,54,214,28,13,05,152,17,15,00,183,16*77
$GPGSV,4,3,13,18,01,260,17,19,10,114,07,20,72,059,16,25,47,282,26*78
$GPGSV,4,4,13,29,25,313,16*41
$GLGSV,3,1,10,65,42,143,,66,00,182,,71,11,028,08,72,44,069,*60
$GLGSV,3,2,10,77,19,217,15,79,11,328,15,81,04,290,16,86,04,085,*68
$GLGSV,3,3,10,87,44,037,,88,41,327,12*6F
$GNGLL,3327.98698,N,09622.23911,W,155517.00,A,A*63
$PTH,825434
$PIMU,825445,9.16,-0.64,3.35,-0.01,-0.00,0.06
$PIMU,825470,8.95,-0.86,3.34,0.03,-0.00,0.06
$PIMU,825495,8.80,-0.80,3.52,0.10,-0.01,0.06
$PIMU,825520,8.89,-0.68,3.75,0.12,-0.02,0.06
$PIMU,825545,9.00,-0.57,3.86,0.05,-0.00,0.07
$PIMU,825570,8.80,-0.45,3.62,-0.04,0.02,0.06
$PIMU,825596,8.85,-0.60,3.42,-0.02,0.01,0.05
$PENV,825603,588.85,14271.86,3.97
$PIMU,825621,8.88,-0.84,3.40,0.05,-0.02,0.04
$PIMU,825646,9.06,-0.78,3.59,0.10,-0.03,0.05
$PIMU,825670,8.95,-0.57,3.70,0.07,-0.01,0.06
$PIMU,825695,8.89,-0.57,3.69,0.02,0.00,0.06
$PIMU,825720,8.92,-0.66,3.61,0.01,-0.00,0.04
$PIMU,825745,8.96,-0.60,3.49,-0.01,-0.00,0.04
$PIMU,825770,8.85,-0.72,3.41,0.00,0.00,0.04
$PIMU,825795,8.97,-0.90,3.46,0.06,-0.02,0.05
$PIMU,825820,8.87,-0.81,3.60,0.08,-0.02,0.06
$PIMU,825845,8.80,-0.70,3.77,0.10,-0.03,0.06
$PENV,825851,588.83,14272.83,3.97
$PIMU,825870,8.81,-0.58,3.84,0.08,-0.01,0.06
$PIMU,825895,8.93,-0.33,3.76,-0.04,0.01,0.05
$PIMU,825920,8.80,-0.61,3.38,-0.06,0.01,0.05
$PIMU,825946,8.80,-0.86,3.18,0.01,-0.01,0.04
$PIMU,825970,8.81,-1.03,3.38,0.13,-0.04,0.04
$PIMU,825995,8.94,-0.76,3.79,0.18,-0.05,0.05
$PIMU,826020,8.77,-0.50,3.90,0.11,-0.02,0.06
$PIMU,826045,8.95,-0.45,3.66,0.00,-0.01,0.04
$PIMU,826070,8.67,-0.66,3.38,0.01,-0.01,0.03
$PENV,826093,588.71,14277.98,3.97
$PIMU,826110,8.83,-0.86,3.45,0.09,-0.04,0.03
$PIMU,826133,8.88,-0.75,3.58,0.12,-0.05,0.05
$PIMU,826158,9.03,-0.70,3.58,0.10,-0.04,0.06
$PIMU,826183,8.71,-0.60,3.54,0.07,-0.04,0.05
$PIMU,826208,8.79,-0.52,3.56,0.08,-0.04,0.04
$PIMU,826233,8.85,-0.58,3.55,0.09,-0.05,0.03
$PIMU,826258,8.80,-0.62,3.52,0.06,-0.05,0.03
$PIMU,826283,8.77,-0.67,3.45,0.05,-0.04,0.04
$PIMU,826308,8.90,-0.68,3.43,0.06,-0.04,0.05
$PIMU,826333,8.92,-0.66,3.44,0.08,-0.05,0.05
$PENV,826339,588.74,14276.56,3.97
$GNRMC,155518.00,A,3327.96049,N,09622.25025,W,99.862,198.93,070822,,,A*5E
$GNVTG,198.93,T,,M,99.862,N,184.944,K,A*11
$GNGGA,155518.00,3327.96049,N,09622.25025,W,1,10,1.18,4644.7,M,-25.6,M,,*45
$PTH,826373
$GNGSA,A,3,11,06,02,12,25,20,05,29,,,,,2.03,1.18,1.65*1B
$GNGSA,A,3,88,79,,,,,,,,,,,2.03,1.18,1.65*19
$GPGSV,4,1,13,02,62,005,13,05,63,195,28,06,19,060,16,09,03,040,14*7C
$GPGSV,4,2,13,11,50,038,14,12,54,214,29,13,05,152,18,15,00,183,13*7C
$GPGSV,4,3,13,18,01,260,18,19,10,114,08,20,72,059,16,25,47,282,29*77
$GPGSV,4,4,13,29,25,313,17*40
$GLGSV,3,1,10,65,42,143,,66,00,182,,71,11,028,10,72,44,069,*69
$GLGSV,3,2,10,77,19,217,14,79,11,328,17,81,04,290,16,86,04,085,*6B
$GLGSV,3,3,10,87,44,037,,88,41,327,11*6C
$GNGLL,3327.96049,N,09622.25025,W,155518.00,A,A*60
$PTH,826472
$PIMU,826482,8.91,-0.86,3.41,0.05,-0.06,0.04
$PIMU,826506,8.91,-0.78,3.44,0.10,-0.05,0.05
$PIMU,826531,8.92,-0.41,3.49,0.07,-0.04,0.05
$PIMU,826556,8.79,-0.52,3.58,0.00,-0.03,0.05
$PIMU,826582,8.77,-0.63,3.39,-0.04,-0.04,0.05
$PENV,826591,588.68,14279.37,3.97
$PIMU,826606,8.88,-0.71,3.29,-0.00,-0.05,0.05
$PIMU,826631,9.15,-0.77,3.29,0.02,-0.05,0.05
$PIMU,826656,8.90,-0.68,3.36,-0.00,-0.02,0.07
$PIMU,826681,8.74,-0.64,3.41,-0.03,-0.01,0.07
$PIMU,826706,8.59,-0.66,3.48,-0.03,-0.01,0.05
$PIMU,826731,8.53,-0.68,3.43,-0.02,-0.02,0.04
$PIMU,826756,8.51,-0.79,3.33,0.00,-0.02,0.03
$PIMU,826781,8.86,-0.82,3.28,0.04,-0.03,0.03
$PIMU,826806,8.89,-0.68,3.36,0.08,-0.03,0.03
$PENV,826830,588.78,14274.87,3.97
$PIMU,826834,8.88,-0.81,3.35,0.11,-0.03,0.03
$PIMU,826858,8.78,-0.70,3.49,0.11,-0.02,0.04
$PIMU,826883,8.78,-0.51,3.57,0.05,-0.02,0.05
$PIMU,826909,8.74,-0.48,3.45,-0.04,-0.01,0.04
$PIMU,826934,8.62,-0.65,3.42,-0.05,-0.01,0.03
$PIMU,826958,8.80,-0.60,3.40,-0.01,-0.04,0.04
$PIMU,826983,8.64,-0.81,3.45,0.05,-0.03,0.05
$PIMU,827008,8.46,-1.04,3.40,0.05,-0.02,0.07
$PIMU,827034,8.75,-0.81,3.51,-0.00,-0.02,0.10
$PIMU,827058,9.09,-0.48,3.62,-0.04,-0.01,0.09
$PENV,827075,588.58,14283.32,3.97
$PIMU,827084,9.03,-0.40,3.46,-0.14,0.02,0.08
$PIMU,827109,8.77,-0.55,3.24,-0.15,0.03,0.06
$PIMU,827134,8.67,-0.85,3.23,-0.09,0.01,0.05
$PIMU,827159,8.61,-0.88,3.46,-0.02,-0.01,0.05
$PIMU,827184,8.63,-0.71,3.75,-0.07,0.00,0.05
$PIMU,827209,8.69,-0.82,3.62,-0.17,0.03,0.05
$PIMU,827234,8.61,-1.02,3.51,-0.22,0.03,0.05
$PIMU,827259,8.52,-1.02,3.36,-0.22,0.02,0.05
$PIMU,827284,8.68,-1.07,3.23,-0.17,0.02,0.04
$PIMU,827309,8.64,-1.07,3.26,-0.10,0.04,0.03
$PENV,827321,588.69,14278.62,3.97
$PIMU,827334,8.79,-1.00,3.43,-0.08,0.04,0.04
$PIMU,827363,8.91,-0.78,3.56,-0.09,0.06,0.03
$PIMU,827385,8.78,-0.99,3.48,-0.12,0.07,0.02
$GNRMC,155519.00,A,3327.93407,N,09622.26083,W,99.812,198.68,070822,,,A*58
$GNVTG,198.68,T,,M,99.812,N,184.852,K,A*14
$GNGGA,155519.00,3327.93407,N,09622.26083,W,1,10,1.18,4645.0,M,-25.6,M,,*46
$PTH,827410
$GNGSA,A,3,11,06,02,12,25,20,05,29,,,,,2.03,1.18,1.65*1B
$GNGSA,A,3,88,79,,,,,,,,,,,2.03,1.18,1.65*19
$GPGSV,4,1,13,02,62,005,14,05,63,195,27,06,19,060,14,09,03,040,13*71
$GPGSV,4,2,13,11,50,038,15,12,54,214,29,13,05,152,19,15,00,183,11*7E
$GPGSV,4,3,13,18,01,260,17,19,10,114,10,20,72,059,16,25,47,282,29*71
$GPGSV,4,4,13,29,25,313,16*41
$GLGSV,3,1,10,65,42,143,,66,00,182,,71,11,028,,72,44,069,*68
$GLGSV,3,2,10,77,19,217,15,79,11,328,18,81,04,290,16,86,04,085,*65
$GLGSV,3,3,10,87,44,037,,88,41,327,14*69
$GNGLL,3327.93407,N,09622.26083,W,155519.00,A,A*65
$PTH,827506
$PIMU,827516,8.60,-1.01,3.63,-0.00,0.02,0.02
$PIMU,827540,8.72,-1.00,3.79,0.00,0.02,0.03
$PIMU,827565,8.72,-1.05,3.67,-0.03,0.02,0.04
$PENV,827574,588.77,14275.35,3.97
$PIMU,827590,8.75,-1.07,3.59,-0.06,0.01,0.04
$PIMU,827615,8.37,-1.09,3.51,-0.06,0.01,0.03
$PIMU,827641,8.44,-1.24,3.41,0.00,-0.02,0.02
$PIMU,827665,8.59,-1.30,3.46,0.07,-0.04,0.02
$PIMU,827690,8.51,-1.17,3.56,0.11,-0.06,0.03
$PIMU,827715,8.76,-1.12,3.63,0.10,-0.06,0.03
$PIMU,827741,8.89,-1.06,3.63,0.08,-0.05,0.04
$PIMU,827765,8.77,-0.93,3.65,0.04,-0.04,0.04
$PIMU,827790,8.80,-0.80,3.52,0.02,-0.04,0.05
$PENV,827812,588.68,14278.99,3.97
$PIMU,827816,9.02,-0.97,3.57,0.03,-0.06,0.03
$PIMU,827840,8.90,-1.14,3.67,0.02,-0.05,0.03
$PIMU,827865,8.74,-1.08,3.73,0.02,-0.03,0.04
$PIMU,827890,8.93,-1.06,3.69,-0.01,-0.02,0.04
$PIMU,827915,9.00,-1.08,3.59,-0.04,-0.01,0.03
$PIMU,827940,8.67,-1.29,3.49,0.01,-0.02,0.03
$PIMU,827965,8.80,-1.30,3.60,0.08,-0.04,0.05
$PIMU,827990,8.89,-1.13,3.81,0.04,-0.04,0.05
$PIMU,828015,8.55,-1.10,3.70,-0.01,-0.02,0.07
$PIMU,828040,8.84,-0.96,3.62,0.03,-0.02,0.08
$PENV,828057,588.48,14287.60,3.97
$PIMU,828066,8.94,-1.06,3.68,0.04,-0.03,0.07
$PIMU,828095,8.72,-1.00,3.62,-0.00,-0.02,0.06
$PIMU,828117,8.63,-1.01,3.65,0.01,-0.02,0.05
$PIMU,828141,8.82,-1.13,3.52,0.05,-0.03,0.04
$PIMU,828166,9.04,-1.26,3.58,0.07,-0.05,0.03
$PIMU,828191,8.94,-1.21,3.70,0.08,-0.05,0.04
$PIMU,828217,9.08,-1.13,3.72,0.05,-0.03,0.05
$PIMU,828241,8.85,-1.15,3.65,-0.02,-0.01,0.06
$PIMU,828266,8.68,-1.19,3.54,0.01,-0.00,0.06
$PIMU,828291,9.00,-1.14,3.50,0.06,-0.02,0.05
$PENV,828303,588.46,14288.40,3.97
$PIMU,828316,9.22,-1.10,3.57,0.07,-0.04,0.03
$GNRMC,155520.00,A,3327.90800,N,09622.27085,W,98.054,196.92,070822,,,A*5D
$GNVTG,196.92,T,,M,98.054,N,181.597,K,A*15
$GNGGA,155520.00,3327.90800,N,09622.27085,W,1,09,1.75,4646.3,M,-25.6,M,,*40
$PTH,828344
$GNGSA,A,3,11,02,12,25,20,05,29,,,,,,3.26,1.75,2.75*12
$GNGSA,A,3,88,79,,,,,,,,,,,3.26,1.75,2.75*16
$GPGSV,4,1,13,02,62,005,13,05,63,195,25,06,19,060,10,09,03,040,13*70
$GPGSV,4,2,13,11,50,038,15,12,54,214,29,13,05,152,18,15,00,183,10*7E
$GPGSV,4,3,13,18,01,260,18,19,10,114,10,20,72,059,17,25,47,282,28*7E
$GPGSV,4,4,13,29,25,313,12*45
$GLGSV,3,1,10,65,42,143,,66,00,182,,71,11,028,,72,44,069,*68
$GLGSV,3,2,10,77,19,217,13,79,11,328,19,81,04,290,17,86,04,085,*63
$GLGSV,3,3,10,87,44,037,,88,41,327,16*6B
$GNGLL,3327.90800,N,09622.27085,W,155520.00,A,A*60
$PTH,828443
$PIMU,828453,8.93,-1.19,3.65,-0.02,-0.02,0.04
$PIMU,828477,8.84,-1.10,3.58,-0.04,-0.01,0.03
$PIMU,828502,8.89,-1.36,3.59,-0.01,-0.02,0.03
$PIMU,828527,8.88,-1.43,3.63,0.03,-0.04,0.03
$PENV,828548,588.52,14286.09,3.97
$PIMU,828552,8.84,-1.18,3.67,0.03,-0.03,0.05
$PIMU,828577,9.04,-1.13,3.61,0.03,-0.02,0.05
$PIMU,828603,9.25,-1.22,3.51,0.02,-0.03,0.05
$PIMU,828628,8.88,-1.13,3.51,0.05,-0.02,0.06
$PIMU,828652,9.01,-0.97,3.66,0.05,-0.02,0.07
$PIMU,828677,8.98,-0.97,3.80,0.03,-0.03,0.06
$PIMU,828702,8.81,-0.96,3.82,0.03,-0.03,0.05
$PIMU,828727,8.94,-0.97,3.65,0.01,-0.02,0.05
$PIMU,828753,9.16,-1.17,3.61,0.01,-0.03,0.04
$PIMU,828777,9.14,-1.33,3.64,0.00,-0.03,0.04
$PENV,828793,588.46,14288.67,3.97
$PIMU,828802,8.78,-1.25,3.57,0.01,-0.03,0.06
$PIMU,828828,8.97,-1.22,3.57,0.04,-0.03,0.06
$PIMU,828853,9.11,-1.14,3.61,0.05,-0.03,0.05
$PIMU,828877,8.94,-1.16,3.65,0.01,-0.03,0.05
$PIMU,828902,8.83,-1.24,3.54,0.03,-0.03,0.06
$PIMU,828927,8.87,-1.22,3.59,0.06,-0.05,0.06
$PIMU,828952,8.85,-0.91,3.60,0.02,-0.04,0.06
$PIMU,828977,9.09,-1.12,3.56,0.03,-0.04,0.06
$PIMU,829002,9.16,-1.18,3.57,0.03,-0.04,0.05
$PIMU,829027,9.08,-1.04,3.65,0.01,-0.03,0.05
$PENV,829039,588.57,14283.75,3.97
$PIMU,829052,9.01,-1.05,3.52,-0.02,-0.02,0.04
$PIMU,829078,9.01,-1.31,3.44,0.01,-0.04,0.04
$PIMU,829102,8.93,-1.33,3.42,0.07,-0.05,0.04
$PIMU,829127,8.90,-1.21,3.55,0.11,-0.06,0.04
$PIMU,829153,9.17,-1.17,3.56,0.11,-0.06,0.05
$PIMU,829177,9.05,-1.15,3.56,0.06,-0.05,0.04
$PIMU,829202,8.86,-1.15,3.47,0.04,-0.04,0.04
$PIMU,829227,9.09,-1.19,3.47,0.08,-0.04,0.04
$PIMU,829253,9.22,-1.06,3.56,0.06,-0.03,0.04
$PIMU,829277,8.85,-1.07,3.57,0.03,-0.02,0.04
$PENV,829285,588.55,14284.89,3.97
$PIMU,829302,9.01,-0.99,3.64,0.01,-0.02,0.05
$PIMU,829327,9.10,-1.13,3.60,0.02,-0.01,0.05
$PIMU,829353,9.01,-1.17,3.53,-0.00,-0.01,0.04
$GNRMC,155521.00,A,3327.88214,N,09622.28048,W,98.717,196.79,070822,,,A*51
$GNVTG,196.79,T,,M,98.717,N,182.825,K,A*17
$GNGGA,155521.00,3327.88214,N,09622.28048,W,1,10,0.98,4649.1,M,-25.6,M,,*4E
$PTH,829390
$GNGSA,A,3,11,06,19,02,12,25,20,05,,,,,1.57,0.98,1.22*10
$GNGSA,A,3,88,79,,,,,,,,,,,1.57,0.98,1.22*11
$GPGSV,4,1,13,02,62,005,13,05,63,195,25,06,19,060,11,09,03,040,14*76
$GPGSV,4,2,13,11,50,038,13,12,54,214,28,13,05,152,17,15,00,183,08*7F
$GPGSV,4,3,13,18,01,260,19,19,10,114,10,20,72,059,17,25,47,282,29*7E
$GPGSV,4,4,13,29,25,313,09*4F
$GLGSV,3,1,10,65,42,143,22,66,00,182,,71,11,028,,72,43,068,*6E
$GLGSV,3,2,10,77,19,217,12,79,11,328,21,81,04,290,18,86,04,085,*66
$GLGSV,3,3,10,87,44,037,,88,41,327,17*6A
$GNGLL,3327.88214,N,09622.28048,W,155521.00,A,A*69
$PTH,829488
$PIMU,829498,9.08,-1.10,3.55,0.04,-0.03,0.05
$PIMU,829522,8.96,-0.99,3.50,0.03,-0.01,0.05
$PENV,829530,588.58,14283.61,3.97
$PIMU,829547,9.05,-1.05,3.39,0.03,-0.02,0.04
$PIMU,829572,9.08,-1.17,3.42,0.02,-0.02,0.03
$PIMU,829597,8.96,-1.16,3.50,0.01,-0.02,0.03
$PIMU,829623,9.11,-1.15,3.48,0.01,-0.01,0.04
$PIMU,829648,9.00,-1.19,3.42,-0.02,-0.00,0.04
$PIMU,829672,8.58,-1.15,3.40,-0.01,0.00,0.04
$PIMU,829697,8.94,-1.10,3.46,0.07,-0.01,0.04
$PIMU,829723,9.06,-1.21,3.46,0.05,-0.02,0.03
$PIMU,829748,8.97,-1.22,3.48,0.02,-0.01,0.04
$PIMU,829772,8.91,-1.19,3.39,0.00,-0.00,0.05
$PENV,829777,588.57,14283.64,3.97
$PIMU,829797,9.16,-1.10,3.37,0.02,-0.01,0.05
$PIMU,829823,9.13,-1.27,3.40,0.04,-0.01,0.04
$PIMU,829847,8.73,-1.15,3.44,0.05,-0.01,0.04
$PIMU,829872,9.01,-1.03,3.53,0.05,-0.01,0.04
$PIMU,829897,9.05,-1.16,3.48,0.00,-0.01,0.03
$PIMU,829922,8.65,-1.18,3.42,-0.01,-0.01,0.04
$PIMU,829947,8.87,-1.13,3.48,0.05,-0.02,0.04
$PIMU,829972,9.19,-1.13,3.52,0.05,-0.02,0.04
$PIMU,829997,8.68,-1.03,3.42,-0.02,0.00,0.04
$PENV,830021,588.54,14284.97,3.97
$PIMU,830024,8.84,-1.04,3.48,0.01,0.01,0.05
$PIMU,830049,8.97,-1.19,3.41,0.03,-0.01,0.04
$PIMU,830075,9.06,-1.20,3.44,0.04,-0.02,0.03
$PIMU,830099,8.81,-1.09,3.51,0.01,0.00,0.05
$PIMU,830125,8.92,-1.02,3.50,0.02,0.00,0.05
$PIMU,830149,8.96,-1.20,3.36,-0.01,0.01,0.04
$PIMU,830174,8.63,-1.30,3.33,-0.01,0.01,0.04
$PIMU,830199,8.80,-1.25,3.47,0.05,-0.00,0.05
$PIMU,830225,8.97,-1.24,3.46,0.05,-0.01,0.05
$PIMU,830249,8.68,-1.09,3.45,0.02,-0.00,0.06
$PENV,830266,588.43,14289.73,3.97
$PIMU,830275,8.82,-1.08,3.54,0.05,-0.01,0.06
$PIMU,830300,9.01,-0.96,3.52,0.04,-0.01,0.05
$GNRMC,155522.00,A,3327.85617,N,09622.28990,W,97.858,196.73,070822,,,A*55
$GNVTG,196.73,T,,M,97.858,N,181.233,K,A*18
$GNGGA,155522.00,3327.85617,N,09622.28990,W,1,08,1.10,4650.9,M,-25.6,M,,*43
$PTH,830327
$GNGSA,A,3,06,19,02,12,25,20,05,,,,,,1.71,1.10,1.30*16
$GNGSA,A,3,79,,,,,,,,,,,,1.71,1.10,1.30*17
$GPGSV,4,1,13,02,62,005,10,05,63,195,27,06,19,060,12,09,03,040,13*73
$GPGSV,4,2,13,11,50,038,10,12,54,214,28,13,05,152,18,15,00,183,*7B
$GPGSV,4,3,13,18,01,260,19,19,10,114,11,20,72,059,17,25,47,282,28*7E
$GPGSV,4,4,13,29,25,313,09*4F
$GLGSV,3,1,10,65,42,143,22,66,00,182,21,71,11,028,,72,43,068,20*6F
$GLGSV,3,2,10,77,19,217,16,79,11,328,22,81,04,290,18,86,04,085,*61
$GLGSV,3,3,10,87,44,037,22,88,41,327,*6C
$GNGLL,3327.85617,N,09622.28990,W,155522.00,A,A*6C
$PTH,830425
$PIMU,830435,8.97,-1.30,3.47,0.02,-0.01,0.06
$PIMU,830460,8.75,-1.23,3.42,-0.03,-0.01,0.08
$PIMU,830485,8.70,-1.11,3.24,-0.01,-0.02,0.08
$PIMU,830509,8.75,-1.20,3.30,0.08,-0.05,0.06
$PENV,830514,588.35,14293.04,3.97
$PIMU,830535,8.69,-1.12,3.63,0.15,-0.04,0.04
$PIMU,830559,8.96,-0.92,3.85,0.09,-0.01,0.04
$PIMU,830584,9.05,-1.18,3.65,-0.04,0.02,0.03
$PIMU,830609,8.71,-1.31,3.35,-0.07,0.03,0.04
$PIMU,830634,8.72,-1.17,3.19,-0.02,0.01,0.04
$PIMU,830660,8.82,-1.28,3.22,0.03,-0.01,0.03
$PIMU,830685,8.80,-1.37,3.43,0.06,-0.02,0.03
$PIMU,830709,8.70,-1.20,3.57,0.10,-0.03,0.04
$PIMU,830734,8.89,-0.99,3.62,0.05,-0.02,0.04
$PENV,830757,588.57,14283.96,3.97
$PIMU,830760,8.88,-1.12,3.58,-0.03,-0.01,0.03
$PIMU,830785,8.55,-1.18,3.39,-0.04,0.00,0.03
$PIMU,830810,8.68,-1.23,3.40,0.02,-0.02,0.03
$PIMU,830835,8.83,-1.31,3.50,0.04,-0.03,0.03
$PIMU,830861,8.67,-1.30,3.46,0.03,-0.02,0.05
$PIMU,830885,8.72,-1.24,3.48,0.04,-0.01,0.06
$PIMU,830910,8.69,-1.21,3.43,0.03,-0.02,0.05
$PIMU,830935,8.76,-1.25,3.52,0.04,-0.02,0.04
$PIMU,830960,8.81,-1.13,3.48,0.01,-0.01,0.04
$PIMU,830986,8.81,-1.26,3.40,0.00,-0.02,0.04
$PENV,831002,588.30,14295.35,3.98
$PIMU,831011,8.94,-1.31,3.39,0.04,-0.03,0.04
$PIMU,831036,8.47,-1.26,3.39,0.06,-0.03,0.04
$PIMU,831061,8.72,-1.29,3.60,0.10,-0.05,0.04
$PIMU,831090,8.80,-1.20,3.64,0.05,-0.04,0.04
$PIMU,831111,8.65,-1.19,3.49,-0.00,-0.03,0.04
$PIMU,831136,8.65,-1.29,3.37,0.00,-0.02,0.04
$PIMU,831161,8.76,-1.33,3.31,0.04,-0.03,0.03
$PIMU,831186,8.75,-1.28,3.42,0.07,-0.03,0.03
$PIMU,831211,8.68,-1.17,3.48,0.06,-0.02,0.03
$PIMU,831236,8.69,-1.26,3.45,0.04,-0.02,0.03
$PENV,831248,588.35,14293.09,3.98
$PIMU,831262,8.69,-1.36,3.41,0.04,-0.03,0.03
$PIMU,831286,8.69,-1.19,3.59,0.07,-0.05,0.03
$PIMU,831311,9.00,-1.16,3.54,0.05,-0.04,0.03
$PIMU,831336,8.90,-1.25,3.34,0.01,-0.03,0.03
$GNRMC,155523.00,A,3327.83029,N,09622.29893,W,98.068,196.11,070822,,,A*5A
$GNVTG,196.11,T,,M,98.068,N,181.622,K,A*1C
$GNGGA,155523.00,3327.83029,N,09622.29893,W,1,08,1.10,4652.9,M,-25.6,M,,*4E
$PTH,831360
$GNGSA,A,3,06,19,02,12,25,20,05,,,,,,1.71,1.10,1.30*16
$GNGSA,A,3,79,,,,,,,,,,,,1.71,1.10,1.30*17
$GPGSV,4,1,13,02,62,005,10,05,63,195,26,06,19,060,15,09,03,040,14*72
$GPGSV,4,2,13,11,50,038,09,12,54,214,28,13,05,152,18,15,00,183,*73
$GPGSV,4,3,13,18,01,260,19,19,10,114,10,20,72,059,18,25,47,282,27*7F
$GPGSV,4,4,13,29,25,313,10*47
$GLGSV,3,1,10,65,42,143,19,66,00,182,20,71,11,028,,72,43,068,18*6D
$GLGSV,3,2,10,77,19,217,18,79,11,328,21,81,04,290,16,86,04,085,*62
$GLGSV,3,3,10,87,44,037,21,88,41,327,19*67
$GNGLL,3327.83029,N,09622.29893,W,155523.00,A,A*63
$PTH,831454
$PIMU,831465,8.71,-1.13,3.46,0.01,-0.03,0.03
$PIMU,831488,8.77,-1.31,3.26,0.01,-0.03,0.03
$PENV,831493,588.37,14292.40,3.98
$PIMU,831513,8.83,-1.31,3.29,0.06,-0.04,0.03
$PIMU,831538,8.61,-1.20,3.40,0.08,-0.03,0.03
$PIMU,831563,8.75,-1.20,3.44,0.06,-0.03,0.02
$PIMU,831589,8.74,-1.24,3.48,0.04,-0.03,0.02
$PIMU,831614,8.47,-1.25,3.41,0.04,-0.02,0.02
$PIMU,831638,8.76,-1.24,3.42,0.06,-0.03,0.02
$PIMU,831663,8.86,-1.23,3.44,0.04,-0.03,0.02
$PIMU,831688,8.46,-1.26,3.31,0.01,-0.02,0.03
$PIMU,831713,8.61,-1.19,3.37,0.04,-0.02,0.04
$PENV,831739,588.33,14294.17,3.98
$PIMU,831742,8.78,-1.24,3.46,0.06,-0.04,0.03
$PIMU,831763,8.71,-1.18,3.47,0.05,-0.03,0.03
$PIMU,831788,8.54,-1.15,3.47,0.02,-0.02,0.03
$PIMU,831817,8.73,-1.26,3.35,0.01,-0.02,0.03
$PIMU,831838,8.68,-1.30,3.30,0.03,-0.03,0.03
$PIMU,831863,8.56,-1.17,3.35,0.07,-0.04,0.03
$PIMU,831888,8.64,-1.18,3.46,0.05,-0.03,0.03
$PIMU,831913,8.72,-1.23,3.48,0.03,-0.03,0.02
$PIMU,831938,8.52,-1.11,3.40,0.01,-0.02,0.03
$PIMU,831963,8.60,-1.18,3.31,0.02,-0.01,0.03
$PENV,831984,588.31,14294.77,3.98
$PIMU,831988,8.74,-1.31,3.34,0.04,-0.03,0.02
$PIMU,832014,8.52,-1.25,3.41,0.05,-0.03,0.03
$PIMU,832038,8.67,-1.14,3.51,0.05,-0.02,0.03
$PIMU,832063,8.73,-1.17,3.47,0.01,-0.02,0.03
$PIMU,832088,8.60,-1.18,3.36,-0.01,-0.01,0.03
$PIMU,832113,8.49,-1.21,3.32,0.00,-0.01,0.03
$PIMU,832138,8.75,-1.23,3.35,0.04,-0.02,0.03
$PIMU,832163,8.84,-1.24,3.48,0.03,-0.02,0.03
$PIMU,832189,8.52,-1.19,3.46,0.00,-0.01,0.03
$PIMU,832214,8.57,-1.22,3.33,0.00,-0.01,0.04
$PENV,832229,588.32,14294.65,3.98
$PIMU,832239,8.68,-1.29,3.40,0.02,-0.02,0.03
$PIMU,832263,8.46,-1.19,3.42,0.02,-0.02,0.03
$PIMU,832288,8.61,-1.07,3.49,0.02,-0.01,0.04
$PIMU,832313,8.72,-1.27,3.47,0.01,-0.02,0.03
$PIMU,832338,8.66,-1.21,3.35,0.01,-0.01,0.03
$PIMU,832363,8.62,-1.11,3.42,0.01,-0.01,0.04
$GNRMC,155524.00,A,3327.80445,N,09622.30788,W,98.172,195.65,070822,,,A*57
$GNVTG,195.65,T,,M,98.172,N,181.815,K,A*1C
$GNGGA,155524.00,3327.80445,N,09622.30788,W,1,10,1.00,4655.1,M,-25.6,M,,*4E
$PTH,832391
$GNGSA,A,3,06,19,02,12,25,20,05,29,,,,,1.61,1.00,1.26*1A
$GNGSA,A,3,65,79,,,,,,,,,,,1.61,1.00,1.26*13
$GPGSV,4,1,13,02,62,005,12,05,63,195,25,06,19,060,15,09,03,040,12*75
$GPGSV,4,2,13,11,50,038,,12,54,214,29,13,05,152,20,15,00,183,*70
$GPGSV,4,3,13,18,01,260,17,19,10,114,11,20,72,059,19,25,47,282,28*7E
$GPGSV,4,4,13,29,25,313,12*45
$GLGSV,3,1,10,65,42,143,18,66,00,182,19,71,11,028,,72,43,068,15*6B
$GLGSV,3,2,10,77,19,217,20,79,11,328,20,81,04,290,12,86,04,085,*6C
$GLGSV,3,3,10,87,44,037,19,88,41,327,18*6D
$GNGLL,3327.80445,N,09622.30788,W,155524.00,A,A*64
$PTH,832495
$PIMU,832506,8.61,-1.24,3.41,0.01,-0.00,0.04
$PIMU,832530,8.85,-1.27,3.47,0.02,-0.01,0.04
$PIMU,832555,8.63,-1.20,3.53,0.01,-0.00,0.04
$PIMU,832581,8.58,-1.12,3.60,0.01,0.00,0.05
$PIMU,832605,8.89,-1.19,3.54,-0.02,0.00,0.04
$PIMU,832630,8.72,-1.28,3.51,-0.02,0.01,0.04
$PIMU,832655,8.42,-1.24,3.42,-0.03,0.01,0.05
$PIMU,832681,8.61,-1.33,3.36,0.00,-0.00,0.05
$PIMU,832705,8.84,-1.36,3.41,0.02,-0.01,0.04
$PENV,832721,588.21,14299.11,3.98
$PIMU,832730,8.57,-1.35,3.46,0.02,-0.00,0.04
$PIMU,832755,8.58,-1.21,3.56,0.01,0.01,0.05
$PIMU,832781,8.71,-1.31,3.53,-0.01,0.01,0.05
$PIMU,832806,8.63,-1.35,3.44,-0.03,0.01,0.05
$PIMU,832830,8.63,-1.26,3.44,-0.00,0.01,0.05
$PIMU,832855,8.79,-1.29,3.41,0.00,0.01,0.04
$PIMU,832880,8.64,-1.37,3.39,-0.00,0.01,0.04
$PIMU,832905,8.62,-1.42,3.47,0.02,0.01,0.04
$PIMU,832931,8.87,-1.29,3.47,0.02,-0.00,0.05
$PIMU,832955,8.70,-1.36,3.52,-0.01,0.00,0.04
$PENV,832966,588.10,14303.79,3.98
$PIMU,832980,8.53,-1.34,3.55,0.00,-0.00,0.05
$PIMU,833005,8.73,-1.26,3.58,0.03,-0.01,0.05
$PIMU,833030,8.80,-1.40,3.50,-0.00,-0.00,0.04
$PIMU,833056,8.59,-1.36,3.48,0.00,0.00,0.05
$PIMU,833080,8.66,-1.30,3.55,0.01,0.00,0.05
$PIMU,833105,8.78,-1.44,3.54,0.03,-0.01,0.04
$PIMU,833131,8.69,-1.39,3.59,0.02,-0.01,0.04
$PIMU,833155,8.71,-1.33,3.60,0.01,-0.00,0.05
$PIMU,833180,8.79,-1.36,3.48,0.01,0.00,0.05
$PIMU,833205,8.78,-1.37,3.42,0.01,-0.00,0.04
$PENV,833211,588.36,14292.66,3.98
$PIMU,833230,8.57,-1.41,3.48,0.04,-0.01,0.04
$PIMU,833256,8.74,-1.37,3.61,0.04,-0.01,0.04
$PIMU,833281,8.79,-1.40,3.58,0.00,-0.00,0.05
$PIMU,833305,8.58,-1.34,3.47,-0.01,0.00,0.05
$GNRMC,155525.00,A,3327.77850,N,09622.31673,W,98.531,195.36,070822,,,A*57
$GNVTG,195.36,T,,M,98.531,N,182.480,K,A*1A
$GNGGA,155525.00,3327.77850,N,09622.31673,W,1,10,1.00,4656.4,M,-25.6,M,,*4D
$PTH,833334
$GNGSA,A,3,06,19,02,12,25,20,05,29,,,,,1.61,1.00,1.26*1A
$GNGSA,A,3,65,79,,,,,,,,,,,1.61,1.00,1.26*13
$GPGSV,4,1,13,02,62,005,13,05,63,195,25,06,19,060,16,09,03,040,13*76
$GPGSV,4,2,13,11,50,038,,12,54,214,29,13,05,152,18,15,00,183,*7B
$GPGSV,4,3,13,18,01,260,14,19,10,114,11,20,72,059,20,25,47,282,28*77
$GPGSV,4,4,13,29,25,313,13*44
$GLGSV,3,1,10,65,42,143,17,66,00,182,19,71,11,028,,72,43,068,13*62
$GLGSV,3,2,10,77,19,217,20,79,11,328,19,81,04,290,08,86,04,085,*6D
$GLGSV,3,3,10,87,44,037,17,88,41,327,16*6D
$GNGLL,3327.77850,N,09622.31673,W,155525.00,A,A*61
$PTH,833433
$PIMU,833443,8.67,-1.47,3.34,0.00,-0.01,0.05
$PENV,833457,588.31,14295.03,3.98
$PIMU,833468,8.74,-1.41,3.45,0.06,-0.02,0.04
$PIMU,833493,8.77,-1.40,3.60,0.08,-0.04,0.03
$PIMU,833517,8.67,-1.36,3.71,0.04,-0.02,0.04
$PIMU,833543,8.82,-1.35,3.68,0.00,-0.02,0.04
$PIMU,833568,8.94,-1.42,3.45,-0.02,-0.01,0.04
$PIMU,833592,8.63,-1.42,3.38,0.00,-0.02,0.04
$PIMU,833617,8.66,-1.44,3.47,0.05,-0.02,0.03
$PIMU,833643,8.80,-1.47,3.64,0.06,-0.03,0.03
$PIMU,833667,8.73,-1.28,3.72,0.02,-0.02,0.04
$PIMU,833692,8.68,-1.36,3.66,-0.01,-0.01,0.04
$PENV,833702,588.31,14294.75,3.98
$PIMU,833717,8.78,-1.42,3.49,0.00,-0.02,0.03
$PIMU,833742,8.78,-1.42,3.45,0.01,-0.02,0.03
$PIMU,833767,8.69,-1.39,3.56,0.02,-0.02,0.04
$PIMU,833792,8.85,-1.40,3.51,0.02,-0.02,0.04
$PIMU,833817,8.81,-1.46,3.49,0.03,-0.02,0.03
$PIMU,833842,8.59,-1.39,3.53,0.03,-0.02,0.03
$PIMU,833868,8.80,-1.42,3.68,0.05,-0.03,0.02
$PIMU,833892,8.93,-1.40,3.68,0.04,-0.03,0.03
$PIMU,833917,8.57,-1.30,3.65,-0.01,-0.01,0.03
$PIMU,833942,8.63,-1.40,3.47,-0.00,-0.01,0.03
$PENV,833947,588.31,14294.89,3.98
$PIMU,833967,8.80,-1.48,3.47,0.04,-0.03,0.02
$PIMU,833992,8.68,-1.38,3.65,0.05,-0.03,0.02
$PIMU,834017,8.74,-1.31,3.68,0.03,-0.01,0.03
$PIMU,834043,8.74,-1.42,3.58,-0.01,-0.01,0.03
$PIMU,834067,8.76,-1.38,3.49,-0.02,-0.02,0.02
$PIMU,834092,8.60,-1.41,3.51,0.00,-0.02,0.02
$PIMU,834117,8.83,-1.37,3.60,0.02,-0.03,0.02
$PIMU,834142,8.85,-1.41,3.56,-0.02,-0.01,0.02
$PIMU,834168,8.57,-1.44,3.46,-0.04,-0.01,0.03
$PENV,834193,588.34,14293.39,3.98
$PIMU,834196,8.61,-1.40,3.50,0.04,-0.02,0.02
$PIMU,834218,8.79,-1.44,3.65,0.06,-0.03,0.01
$PIMU,834242,8.60,-1.34,3.73,0.03,-0.02,0.01
$PIMU,834267,8.74,-1.40,3.68,-0.00,-0.01,0.02
$PIMU,834292,8.91,-1.36,3.51,-0.01,-0.01,0.02
$PIMU,834317,8.70,-1.37,3.45,-0.03,-0.01,0.01
$PIMU,834346,8.69,-1.54,3.49,0.03,-0.02,0.01
$GNRMC,155526.00,A,3327.75256,N,09622.32543,W,97.696,195.61,070822,,,A*5A
$GNVTG,195.61,T,,M,97.696,N,180.934,K,A*19
$GNGGA,155526.00,3327.75256,N,09622.32543,W,1,10,1.00,4657.2,M,-25.6,M,,*44
$PTH,834370
$GNGSA,A,3,06,19,02,12,25,20,05,29,,,,,1.61,1.00,1.26*1A
$GNGSA,A,3,65,79,,,,,,,,,,,1.61,1.00,1.26*13
$GPGSV,4,1,13,02,62,005,11,05,63,195,24,06,19,060,16,09,03,040,14*72
$GPGSV,4,2,13,11,50,038,,12,54,214,29,13,05,152,17,15,00,183,*74
$GPGSV,4,3,13,18,01,260,11,19,10,114,10,20,72,059,19,25,47,282,28*79
$GPGSV,4,4,13,29,25,313,13*44
$GLGSV,3,1,10,65,42,143,17,66,00,182,18,71,11,028,,72,43,068,13*63
$GLGSV,3,2,10,77,19,217,19,79,11,328,19,81,04,290,11,86,04,085,22*6F
$GLGSV,3,3,10,87,44,037,17,88,41,327,13*68
$GNGLL,3327.75256,N,09622.32543,W,155526.00,A,A*6F
$PTH,834468
$PIMU,834480,8.84,-1.47,3.60,0.03,-0.02,0.01
$PIMU,834504,8.85,-1.42,3.57,-0.01,-0.00,0.01
$PIMU,834529,8.49,-1.44,3.50,-0.04,0.00,0.02
$PIMU,834553,8.72,-1.46,3.45,0.01,-0.01,0.02
$PIMU,834578,8.74,-1.44,3.48,0.03,-0.02,0.01
$PIMU,834603,8.59,-1.36,3.61,0.02,-0.02,0.02
$PIMU,834628,8.57,-1.28,3.65,-0.00,-0.00,0.02
$PIMU,834653,8.75,-1.39,3.59,-0.02,-0.00,0.02
$PIMU,834678,8.66,-1.43,3.61,-0.02,-0.00,0.02
$PENV,834684,588.33,14294.02,3.98
$PIMU,834703,8.63,-1.39,3.60,-0.01,0.01,0.02
$PIMU,834728,8.64,-1.37,3.49,-0.04,0.01,0.02
$PIMU,834753,8.60,-1.43,3.43,-0.04,0.00,0.01
$PIMU,834778,8.44,-1.39,3.58,0.01,-0.01,0.00
$PIMU,834803,8.70,-1.28,3.65,0.02,-0.01,-0.01
$PIMU,834828,8.76,-1.31,3.74,-0.02,-0.00,-0.01
$PIMU,834854,8.54,-1.29,3.70,-0.06,0.03,-0.01
$PIMU,834879,8.55,-1.43,3.60,-0.06,0.03,-0.00
$PIMU,834903,8.60,-1.38,3.67,-0.06,0.01,-0.01
$PIMU,834928,8.29,-1.27,3.64,-0.09,0.00,-0.00
$PENV,834933,588.32,14294.62,3.98
$PIMU,834953,8.42,-1.35,3.52,-0.07,0.01,-0.01
$PIMU,834978,8.61,-1.52,3.37,-0.02,-0.00,-0.02
$PIMU,835003,8.63,-1.42,3.51,0.01,-0.01,-0.02
$PIMU,835028,8.52,-1.43,3.61,-0.00,-0.01,-0.02
$PIMU,835053,8.66,-1.50,3.64,-0.03,-0.00,-0.02
$PIMU,835078,8.44,-1.47,3.57,-0.06,0.00,-0.00
$PIMU,835103,8.35,-1.49,3.46,-0.03,0.00,0.00
$PIMU,835129,8.53,-1.59,3.31,0.05,-0.02,0.01
$PIMU,835154,8.80,-1.41,3.56,0.09,-0.03,0.02
$PENV,835175,588.28,14296.35,3.98
$PIMU,835179,8.50,-1.43,3.69,0.02,-0.02,0.02
$PIMU,835204,8.47,-1.50,3.60,0.00,0.00,0.02
$PIMU,835230,8.47,-1.60,3.40,0.06,-0.01,0.02
$PIMU,835254,8.61,-1.44,3.54,0.10,-0.02,0.01
$PIMU,835279,8.39,-1.33,3.72,0.07,-0.01,0.01
$PIMU,835304,8.60,-1.38,3.69,0.03,-0.01,0.01
$PIMU,835330,8.56,-1.46,3.64,0.01,-0.02,0.01
$PIMU,835354,8.32,-1.51,3.49,0.04,-0.02,0.01
$PIMU,835379,8.63,-1.46,3.46,0.09,-0.03,0.01
$GNRMC,155527.00,A,3327.72777,N,09622.33168,W,97.105,194.79,070822,,,A*53
$GNVTG,194.79,T,,M,97.105,N,179.839,K,A*16
